name,lon,lat,tipo_geometria,pais,fecha_descarga
Las Mariquillas,-1.747781,39.1363212,Point,España,2026-03-04 13:06:55.752367
El Quijote,-1.9063101,38.9766836,Point,España,2026-03-04 13:06:55.752367
The Tapa Negra,-1.8546775,38.9955059,Point,España,2026-03-04 13:06:55.752367
El Callejón de los Gatos,-1.8530715,38.9916483,Point,España,2026-03-04 13:06:55.752367
Nuestro Bar,-1.8488364,38.9899783,Point,España,2026-03-04 13:06:55.752367
Santa Marta,-1.856448,38.985348,Point,España,2026-03-04 13:06:55.752367
Bendix,-1.8618215,39.0043239,Point,España,2026-03-04 13:06:55.752367
Tapalia,-1.8589375,38.9820825,Point,España,2026-03-04 13:06:55.752367
El Águila,-1.8670164,39.0034359,Point,España,2026-03-04 13:06:55.752367
El Rincón de la Cuba,-1.8571988,39.0022046,Point,España,2026-03-04 13:06:55.752367
Azabache,-1.8577032,38.9980022,Point,España,2026-03-04 13:06:55.752367
Fogón Andino,-1.8653508,38.9982028,Point,España,2026-03-04 13:06:55.752367
El J,-1.8625894,39.0031585,Point,España,2026-03-04 13:06:55.752367
Telepizza,-1.86671,38.9979222,Point,España,2026-03-04 13:06:55.752367
La Bodeguilla del Maquinilla,-1.8689199,38.9959647,Point,España,2026-03-04 13:06:55.752367
La Sartén,-1.8698802,38.9954088,Point,España,2026-03-04 13:06:55.752367
Martina,-1.854891,38.9882308,Point,España,2026-03-04 13:06:55.752367
El Rincón de Mía,-1.8602189,38.9950545,Point,España,2026-03-04 13:06:55.752367
Oleana,-1.859192,38.9935498,Point,España,2026-03-04 13:06:55.752367
La Alacena,-1.8451345,38.985548,Point,España,2026-03-04 13:06:55.752367
Labrador,-1.9201077,38.9197891,Point,España,2026-03-04 13:06:55.752367
Batiburrillo,-1.918412,38.9179813,Point,España,2026-03-04 13:06:55.752367
La Biela,-1.9923606,38.9022695,Point,España,2026-03-04 13:06:55.752367
El Canal,-1.9207461,38.8673316,Point,España,2026-03-04 13:06:55.752367
El Chaparral,-1.9206978,38.8667176,Point,España,2026-03-04 13:06:55.752367
Meson El Colegial,-1.9222428,38.8677827,Point,España,2026-03-04 13:06:55.752367
Comidas Manchegas,-1.7429856,39.0687065,Point,España,2026-03-04 13:06:55.752367
Pizzería Italia,-1.8572183,38.9852783,Point,España,2026-03-04 13:06:55.752367
Don Gil,-1.8593447,38.9944468,Point,España,2026-03-04 13:06:55.752367
La Jaula,-1.8819158,38.9886749,Point,España,2026-03-04 13:06:55.752367
El Júcar,-1.8835091,38.9880807,Point,España,2026-03-04 13:06:55.752367
Pollos Olga,-1.8615023,38.9941035,Point,España,2026-03-04 13:06:55.752367
Oído Cocina,-1.8528777,38.9860464,Point,España,2026-03-04 13:06:55.752367
La Taberna del Topo,-1.8623323,38.9876534,Point,España,2026-03-04 13:06:55.752367
La Falla,-1.8645401,38.9937553,Point,España,2026-03-04 13:06:55.752367
Arazana,-1.8575098,38.9973485,Point,España,2026-03-04 13:06:55.752367
San Antón,-1.8550204,38.9960331,Point,España,2026-03-04 13:06:55.752367
La Cueva de La Abuela,-1.8635832,38.9812256,Point,España,2026-03-04 13:06:55.752367
,-1.8635249,38.9661312,Point,España,2026-03-04 13:06:55.752367
La Casita,-1.8336479,38.9790624,Point,España,2026-03-04 13:06:55.752367
L'Arruzz,-1.8526426,38.9929682,Point,España,2026-03-04 13:06:55.752367
Nuestras Raíces,-1.8663692,38.9826464,Point,España,2026-03-04 13:06:55.752367
El Bisturí,-1.8700301,38.990433,Point,España,2026-03-04 13:06:55.752367
Enrique y Francisco,-1.8689921,38.9901495,Point,España,2026-03-04 13:06:55.752367
Merendero Los Llanos,-1.8769126,38.9591241,Point,España,2026-03-04 13:06:55.752367
Asador Júcar,-1.8607566,38.9983802,Point,España,2026-03-04 13:06:55.752367
Las Brasas,-1.8334954,39.0547361,Point,España,2026-03-04 13:06:55.752367
Koi Sushi Buffet,-1.8569185,38.9939491,Point,España,2026-03-04 13:06:55.752367
Picos de Europa,-1.8476053,38.986075,Point,España,2026-03-04 13:06:55.752367
Albarderos,-1.8483634,38.9848071,Point,España,2026-03-04 13:06:55.752367
Cortijo el Águila,-1.8907987,38.9973855,Point,España,2026-03-04 13:06:55.752367
La Parrilla,-1.8883901,38.9973064,Point,España,2026-03-04 13:06:55.752367
El Alambique,-1.8539969,38.9927107,Point,España,2026-03-04 13:06:55.752367
La Fontana di Trevi,-1.8532254,38.9922282,Point,España,2026-03-04 13:06:55.752367
Rincón Gallego,-1.8543811,38.9925306,Point,España,2026-03-04 13:06:55.752367
Vips,-1.853753,38.9920659,Point,España,2026-03-04 13:06:55.752367
El Porche,-1.8538664,38.9915863,Point,España,2026-03-04 13:06:55.752367
La Bechamel,-1.8531449,38.9919052,Point,España,2026-03-04 13:06:55.752367
D'Italy,-1.8532415,38.9918844,Point,España,2026-03-04 13:06:55.752367
Los Cuentos,-1.8755864,39.0055064,Point,España,2026-03-04 13:06:55.752367
Domino's,-1.8531425,38.9836689,Point,España,2026-03-04 13:06:55.752367
Domino's,-1.8722956,38.9981209,Point,España,2026-03-04 13:06:55.752367
Horno de la Cruz,-1.851043,38.9937719,Point,España,2026-03-04 13:06:55.752367
Posada Real,-1.850615,38.9952568,Point,España,2026-03-04 13:06:55.752367
Ra-men Kagura,-1.8526227,38.9954194,Point,España,2026-03-04 13:06:55.752367
Doña Lola,-1.8505656,38.9907498,Point,España,2026-03-04 13:06:55.752367
Telepizza,-1.850072,38.9840748,Point,España,2026-03-04 13:06:55.752367
El Fogón,-1.8546427,38.9834183,Point,España,2026-03-04 13:06:55.752367
Nova,-1.8605822,38.9906195,Point,España,2026-03-04 13:06:55.752367
Taberna Pepa La Cordobesa,-1.8494772,38.9924963,Point,España,2026-03-04 13:06:55.752367
La Balanza,-1.8756363,39.0062511,Point,España,2026-03-04 13:06:55.752367
Los Gabrieles,-1.9341504,39.0602018,Point,España,2026-03-04 13:06:55.752367
Tapería La Fonda,-1.8607988,38.9941675,Point,España,2026-03-04 13:06:55.752367
El molino,-1.9323488,39.059983,Point,España,2026-03-04 13:06:55.752367
El Capricho,-1.8419737,38.9830154,Point,España,2026-03-04 13:06:55.752367
Alvarez,-1.8553031,38.9993669,Point,España,2026-03-04 13:06:55.752367
Chaflán de la Tapa,-1.8609512,38.9892609,Point,España,2026-03-04 13:06:55.752367
Sibuya Urban Sushi Bar,-1.8538883,38.9928696,Point,España,2026-03-04 13:06:55.752367
La Búha y el Búho,-1.8528802,38.9927684,Point,España,2026-03-04 13:06:55.752367
La Fonda,-1.853018,38.9928121,Point,España,2026-03-04 13:06:55.752367
Bar Deporte,-1.8561787,38.981474,Point,España,2026-03-04 13:06:55.752367
Las Mariquillas,-1.8560988,38.9812196,Point,España,2026-03-04 13:06:55.752367
Saona,-1.8538518,38.9909553,Point,España,2026-03-04 13:06:55.752367
La Peña Tapas & Copas,-1.8557969,38.9810971,Point,España,2026-03-04 13:06:55.752367
Escuela - Restaurante El Sembrador,-1.8550606,38.9816622,Point,España,2026-03-04 13:06:55.752367
La Tía Juana,-1.8538361,38.9914744,Point,España,2026-03-04 13:06:55.752367
Jimena Cocktails & Restaurant,-1.8531911,38.9928677,Point,España,2026-03-04 13:06:55.752367
Sueños del Este,-1.8533779,38.9929063,Point,España,2026-03-04 13:06:55.752367
Mahalo Poké,-1.8555553,38.995274,Point,España,2026-03-04 13:06:55.752367
Tsuruta Ramen,-1.8554825,38.9953921,Point,España,2026-03-04 13:06:55.752367
Himawari Ramen,-1.8586395,38.9925327,Point,España,2026-03-04 13:06:55.752367
Foster's Hollywood,-1.8571596,38.993653,Point,España,2026-03-04 13:06:55.752367
Restaurante Asador Concepción,-1.8552417,38.9942858,Point,España,2026-03-04 13:06:55.752367
La Marteña,-1.8602251,38.994537,Point,España,2026-03-04 13:06:55.752367
El Suculento,-1.8532251,38.9911094,Point,España,2026-03-04 13:06:55.752367
Las Rejas,-1.8553973,38.9914441,Point,España,2026-03-04 13:06:55.752367
Brasa y Birra,-1.8546609,38.9912352,Point,España,2026-03-04 13:06:55.752367
Sublime Calasanz,-1.8545022,38.9898704,Point,España,2026-03-04 13:06:55.752367
Baru,-1.8569769,38.9896154,Point,España,2026-03-04 13:06:55.752367
Max Sins,-1.8642192,38.9950209,Point,España,2026-03-04 13:06:55.752367
Soho,-1.8528557,38.9838722,Point,España,2026-03-04 13:06:55.752367
Mesón El Sol,-1.852587,38.9889959,Point,España,2026-03-04 13:06:55.752367
Catacaldos,-1.8532705,38.9889599,Point,España,2026-03-04 13:06:55.752367
Yangtzé,-1.8549559,38.9911648,Point,España,2026-03-04 13:06:55.752367
La Tagliatella,-1.8536831,38.9914894,Point,España,2026-03-04 13:06:55.752367
Xabre,-1.8532862,38.9912702,Point,España,2026-03-04 13:06:55.752367
Ababol,-1.8541149,38.9888128,Point,España,2026-03-04 13:06:55.752367
Sabor a Mundo,-1.8592036,38.995071,Point,España,2026-03-04 13:06:55.752367
Mucho + Que Pizza,-1.8573351,38.9944892,Point,España,2026-03-04 13:06:55.752367
Los Molinos,-1.8572802,38.9917235,Point,España,2026-03-04 13:06:55.752367
Goiko Grill,-1.8585647,38.9913696,Point,España,2026-03-04 13:06:55.752367
Carmen,-1.8668753,38.9962869,Point,España,2026-03-04 13:06:55.752367
Mucho + Que Pizza,-1.8595709,38.986779,Point,España,2026-03-04 13:06:55.752367
Día & Noche,-1.8529892,38.9992447,Point,España,2026-03-04 13:06:55.752367
Ramen,-1.8555645,38.9955393,Point,España,2026-03-04 13:06:55.752367
Domino's,-1.847639,38.9985664,Point,España,2026-03-04 13:06:55.752367
967,-1.851352,38.9987721,Point,España,2026-03-04 13:06:55.752367
Mi Amore,-1.8541151,38.9936734,Point,España,2026-03-04 13:06:55.752367
Hoy Sushi,-1.8636924,38.9962429,Point,España,2026-03-04 13:06:55.752367
Enrique y Francisco II,-1.8625696,38.996117,Point,España,2026-03-04 13:06:55.752367
,-1.8591533,38.9935402,Point,España,2026-03-04 13:06:55.752367
Gran Muralla,-1.8610613,38.9926579,Point,España,2026-03-04 13:06:55.752367
Pomodoro,-1.879738,39.0074431,Point,España,2026-03-04 13:06:55.752367
Vips,-1.8792739,39.0080885,Point,España,2026-03-04 13:06:55.752367
Foster's Hollywood,-1.8796827,39.007833,Point,España,2026-03-04 13:06:55.752367
Wok Sushi,-1.8799656,39.0077288,Point,España,2026-03-04 13:06:55.752367
Krunch,-1.8799315,39.0076397,Point,España,2026-03-04 13:06:55.752367
Ding Ramen,-1.8798078,39.007478,Point,España,2026-03-04 13:06:55.752367
Ginos,-1.8793299,39.0074316,Point,España,2026-03-04 13:06:55.752367
Fresh Sushi,-1.8678213,38.984145,Point,España,2026-03-04 13:06:55.752367
100 Montaditos,-1.8474744,38.9903384,Point,España,2026-03-04 13:06:55.752367
Pomodoro,-1.8473677,38.9903029,Point,España,2026-03-04 13:06:55.752367
Casa de Oro,-1.8627411,38.9976325,Point,España,2026-03-04 13:06:55.752367
Casa de Oro II,-1.859935,38.9988007,Point,España,2026-03-04 13:06:55.752367
Telepizza,-1.859571,38.9989034,Point,España,2026-03-04 13:06:55.752367
,-1.8605771,39.0007097,Point,España,2026-03-04 13:06:55.752367
Restaurante Árabe Ouzoud,-1.8608736,38.9910932,Point,España,2026-03-04 13:06:55.752367
,-1.8633875,38.9954204,Point,España,2026-03-04 13:06:55.752367
Pizzería La Mancha,-1.8626553,38.993837,Point,España,2026-03-04 13:06:55.752367
Giorgi Pizzería,-1.8618721,38.9888346,Point,España,2026-03-04 13:06:55.752367
Pizzería Ángela,-1.8723613,39.0059807,Point,España,2026-03-04 13:06:55.752367
Arrocería Freiduría Portobello,-1.8455628,38.9871882,Point,España,2026-03-04 13:06:55.752367
Seven Joy,-1.8728412,39.0083892,Point,España,2026-03-04 13:06:55.752367
La Fonda,-1.8722597,39.0070445,Point,España,2026-03-04 13:06:55.752367
El Escondido,-1.869916,39.0016738,Point,España,2026-03-04 13:06:55.752367
Pizzería Albaceteña,-1.8721973,38.9961186,Point,España,2026-03-04 13:06:55.752367
Brasería Carmen,-1.8871887572396682,39.01504398867222,Polygon,España,2026-03-04 13:06:55.752367
100 Montaditos,-1.8791588411272064,39.00779952399009,Polygon,España,2026-03-04 13:06:55.752367
Restaurante 6 Hermanos,-1.9335835374888817,39.06103654552432,Polygon,España,2026-03-04 13:06:55.752367
Restaurante Mesón Alegría,-1.743878824198889,39.066582604923,Polygon,España,2026-03-04 13:06:55.752367
Merendero la Vereda,-1.8772581072198375,38.98791917394767,Polygon,España,2026-03-04 13:06:55.752367
Horchatería Los Valencianos,-1.873520474049334,39.006098233752326,Polygon,España,2026-03-04 13:06:55.752367
"Mesón ""El Lomo""",-1.8781869755844651,38.95661950621147,Polygon,España,2026-03-04 13:06:55.752367
,-1.832217448950089,38.92979193532536,Polygon,España,2026-03-04 13:06:55.752367
Valencia Once,-0.4838708,38.3525297,Point,España,2026-03-04 13:06:55.752367
casa Salvi,-0.468365,38.3598232,Point,España,2026-03-04 13:06:55.752367
Torre Mauro,-0.4308318,38.3660534,Point,España,2026-03-04 13:06:55.752367
Salones Juan XXIII,-0.4700606,38.3699207,Point,España,2026-03-04 13:06:55.752367
restaurante astorga,-0.494505,38.3468766,Point,España,2026-03-04 13:06:55.752367
Restaurante Baeza & Rufete,-0.4334877,38.3686514,Point,España,2026-03-04 13:06:55.752367
La Tagliatella,-0.4304898,38.3629134,Point,España,2026-03-04 13:06:55.752367
cervecería Max,-0.4348772,38.3687039,Point,España,2026-03-04 13:06:55.752367
L'arruz,-0.4322083,38.3654754,Point,España,2026-03-04 13:06:55.752367
Bayari,-0.4272925,38.3676002,Point,España,2026-03-04 13:06:55.752367
La Lonja de Andrino,-0.4272065,38.3676363,Point,España,2026-03-04 13:06:55.752367
Restaurante Nan-King,-0.4314512,38.3626861,Point,España,2026-03-04 13:06:55.752367
Bayari,-0.4251845,38.3672345,Point,España,2026-03-04 13:06:55.752367
Touch,-0.4292934,38.3667719,Point,España,2026-03-04 13:06:55.752367
Restaurante Tailandés Sabatika,-0.4304591,38.3663084,Point,España,2026-03-04 13:06:55.752367
La Gamba,-0.4314241,38.3644441,Point,España,2026-03-04 13:06:55.752367
Restaurante Dársena,-0.4869017,38.338395,Point,España,2026-03-04 13:06:55.752367
Torre de Rejas,-0.4392971,38.3790808,Point,España,2026-03-04 13:06:55.752367
La Ereta,-0.4816896,38.348479,Point,España,2026-03-04 13:06:55.752367
Aldebarán,-0.487114,38.3390484,Point,España,2026-03-04 13:06:55.752367
Racó del Plá,-0.4777002,38.3568583,Point,España,2026-03-04 13:06:55.752367
El rincón de la amistad,-0.4761015,38.3602449,Point,España,2026-03-04 13:06:55.752367
Asador 7 de Julio,-0.525562,38.3443393,Point,España,2026-03-04 13:06:55.752367
Bar Europa,-0.5271327,38.3448778,Point,España,2026-03-04 13:06:55.752367
La Bona Cuina,-0.4915656,38.3397106,Point,España,2026-03-04 13:06:55.752367
Piripi,-0.4940235,38.3422835,Point,España,2026-03-04 13:06:55.752367
Restaurante Casamar,-0.5635958,38.4107649,Point,España,2026-03-04 13:06:55.752367
Nou Manolín,-0.4851219,38.3452916,Point,España,2026-03-04 13:06:55.752367
Monastrell,-0.4815514,38.3442953,Point,España,2026-03-04 13:06:55.752367
El jumillano,-0.487199,38.3471024,Point,España,2026-03-04 13:06:55.752367
Cervecería Bayarri,-0.4313873,38.3645179,Point,España,2026-03-04 13:06:55.752367
Lucentum,-0.4401247,38.3657462,Point,España,2026-03-04 13:06:55.752367
Isla d'Jerba,-0.4334196,38.368457,Point,España,2026-03-04 13:06:55.752367
Lizarrán,-0.488306,38.3470726,Point,España,2026-03-04 13:06:55.752367
El Merengue,-0.4894979,38.3466428,Point,España,2026-03-04 13:06:55.752367
La Taberna de Luceros,-0.4900207,38.3458273,Point,España,2026-03-04 13:06:55.752367
Zhong Hua,-0.489639,38.3454875,Point,España,2026-03-04 13:06:55.752367
Pizzería Guay,-0.42148,38.3590492,Point,España,2026-03-04 13:06:55.752367
El bodegón,-0.4256751,38.3654519,Point,España,2026-03-04 13:06:55.752367
Super Pizza,-0.4148037,38.3714456,Point,España,2026-03-04 13:06:55.752367
restaurante Estrella,-0.4123308,38.3710971,Point,España,2026-03-04 13:06:55.752367
La Barbacoa,-0.4104744,38.3659956,Point,España,2026-03-04 13:06:55.752367
Azul Playa,-0.4105808,38.3687488,Point,España,2026-03-04 13:06:55.752367
Il Fornello,-0.4105199,38.3675764,Point,España,2026-03-04 13:06:55.752367
Nou Nerea,-0.4971784,38.3506317,Point,España,2026-03-04 13:06:55.752367
Pizzería Terra Nosa,-0.4962035,38.3501941,Point,España,2026-03-04 13:06:55.752367
Lanús,-0.467233,38.3627705,Point,España,2026-03-04 13:06:55.752367
El mirador,-0.4831336,38.3438389,Point,España,2026-03-04 13:06:55.752367
Lizarran,-0.4834815,38.345152,Point,España,2026-03-04 13:06:55.752367
Pomodoro,-0.4846771,38.3466305,Point,España,2026-03-04 13:06:55.752367
Restaurante Aitana,-0.4101233,38.3780219,Point,España,2026-03-04 13:06:55.752367
Kebap,-0.4877254,38.3415645,Point,España,2026-03-04 13:06:55.752367
Restaurante Oriente,-0.4882779,38.342305,Point,España,2026-03-04 13:06:55.752367
Orient Express,-0.4881384,38.3421199,Point,España,2026-03-04 13:06:55.752367
Pilsen,-0.4851262,38.347595,Point,España,2026-03-04 13:06:55.752367
La paellica express,-0.4254982,38.3642379,Point,España,2026-03-04 13:06:55.752367
Kebap Gran Via,-0.4905824,38.3630359,Point,España,2026-03-04 13:06:55.752367
De Cuchara La Cocina de Carmen,-0.4895052,38.3477245,Point,España,2026-03-04 13:06:55.752367
El Ático,-0.4831402,38.3453985,Point,España,2026-03-04 13:06:55.752367
,-0.4835373,38.3468006,Point,España,2026-03-04 13:06:55.752367
los troncos,-0.4480537,38.362568,Point,España,2026-03-04 13:06:55.752367
Casa Jesus,-0.4426785,38.3639224,Point,España,2026-03-04 13:06:55.752367
La Lonja,-0.4867714,38.349374,Point,España,2026-03-04 13:06:55.752367
,-0.514114,38.3413042,Point,España,2026-03-04 13:06:55.752367
Döner Kebab,-0.5082855,38.3378137,Point,España,2026-03-04 13:06:55.752367
Puntapiedra,-0.4662965,38.3521315,Point,España,2026-03-04 13:06:55.752367
Damasol,-0.4865989,38.3490958,Point,España,2026-03-04 13:06:55.752367
Telepizza,-0.4715768,38.3669443,Point,España,2026-03-04 13:06:55.752367
Bodega Adolfo,-0.5022593,38.3408667,Point,España,2026-03-04 13:06:55.752367
Mesón Los Curros,-0.4713395,38.4066364,Point,España,2026-03-04 13:06:55.752367
La terreta gastrobar,-0.488167,38.3476711,Point,España,2026-03-04 13:06:55.752367
Tapas Quo Vadis,-0.4816448,38.3456968,Point,España,2026-03-04 13:06:55.752367
Cervecería Monte Tossal,-0.4908174,38.3530351,Point,España,2026-03-04 13:06:55.752367
Domino's,-0.4850145,38.3595135,Point,España,2026-03-04 13:06:55.752367
Corneta,-0.4875501,38.3625079,Point,España,2026-03-04 13:06:55.752367
Tapas en Tablas,-0.4845171,38.3449654,Point,España,2026-03-04 13:06:55.752367
Delta Gourmet,-0.4930707,38.3449737,Point,España,2026-03-04 13:06:55.752367
Boff,-0.4799296,38.3401266,Point,España,2026-03-04 13:06:55.752367
Bora,-0.4861769,38.3449724,Point,España,2026-03-04 13:06:55.752367
Doña Aña,-0.5082786,38.337558,Point,España,2026-03-04 13:06:55.752367
Italia en Miniatura,-0.5081606,38.3365482,Point,España,2026-03-04 13:06:55.752367
La Mafia se sienta a la mesa,-0.4338089,38.3714389,Point,España,2026-03-04 13:06:55.752367
Wok sushi,-0.4426347,38.3691369,Point,España,2026-03-04 13:06:55.752367
Momen,-0.4853231,38.3426288,Point,España,2026-03-04 13:06:55.752367
Damasol,-0.4868474,38.3490066,Point,España,2026-03-04 13:06:55.752367
Dos Hermanos,-0.4868012,38.3488225,Point,España,2026-03-04 13:06:55.752367
La barra de César Anca,-0.48502,38.3429488,Point,España,2026-03-04 13:06:55.752367
La taberna del Gourmet,-0.4815939,38.3443998,Point,España,2026-03-04 13:06:55.752367
Tribeca,-0.4823515,38.3441224,Point,España,2026-03-04 13:06:55.752367
El Portal,-0.4836745,38.3439728,Point,España,2026-03-04 13:06:55.752367
American Humo y Fuego,-0.4871363,38.3450702,Point,España,2026-03-04 13:06:55.752367
Casa de comidas Juana Romero,-0.4862453,38.3448062,Point,España,2026-03-04 13:06:55.752367
Restaurante Pizzería Tito's,-0.4739922,38.3623774,Point,España,2026-03-04 13:06:55.752367
Bella Napoli,-0.4792122,38.3588894,Point,España,2026-03-04 13:06:55.752367
Cervecería El Chiriguandi,-0.4755977,38.3609291,Point,España,2026-03-04 13:06:55.752367
Aloha Tiki Bar & Restaurante,-0.483205,38.3469392,Point,España,2026-03-04 13:06:55.752367
Pizzería Provenzal,-0.5206595,38.2828414,Point,España,2026-03-04 13:06:55.752367
El Capricho de Raquel,-0.520942,38.2828191,Point,España,2026-03-04 13:06:55.752367
El Gamba,-0.5205253,38.2803653,Point,España,2026-03-04 13:06:55.752367
Nou Vora Mar,-0.5206764,38.2829541,Point,España,2026-03-04 13:06:55.752367
La Tartana,-0.52084,38.2851393,Point,España,2026-03-04 13:06:55.752367
Guillermo,-0.4864709,38.3503557,Point,España,2026-03-04 13:06:55.752367
Lo Nuestro,-0.4863285,38.3503541,Point,España,2026-03-04 13:06:55.752367
Templo,-0.4872412,38.345047,Point,España,2026-03-04 13:06:55.752367
Casa Mia Italia,-0.487186,38.350927,Point,España,2026-03-04 13:06:55.752367
La Despensa Extremeña,-0.5076182,38.3378612,Point,España,2026-03-04 13:06:55.752367
Casa Ibarra,-0.4816595,38.3453343,Point,España,2026-03-04 13:06:55.752367
La Piazza,-0.4829839,38.3453882,Point,España,2026-03-04 13:06:55.752367
Telepizza,-0.5094853,38.3445308,Point,España,2026-03-04 13:06:55.752367
La Cantina Alicante,-0.4912727,38.3448203,Point,España,2026-03-04 13:06:55.752367
Sento,-0.4315067,38.3643336,Point,España,2026-03-04 13:06:55.752367
El Dragón Escamado,-0.4883346,38.351009,Point,España,2026-03-04 13:06:55.752367
Cervecería Restaurante Victor,-0.4996701,38.3408815,Point,España,2026-03-04 13:06:55.752367
La Taberna de D. José,-0.4999283,38.3420923,Point,España,2026-03-04 13:06:55.752367
Liberty Kitchen,-0.4909315,38.3472022,Point,España,2026-03-04 13:06:55.752367
Eurokebap,-0.4836706,38.3604532,Point,España,2026-03-04 13:06:55.752367
Moments,-0.5206319,38.2824099,Point,España,2026-03-04 13:06:55.752367
El noi II,-0.5703208,38.3383175,Point,España,2026-03-04 13:06:55.752367
100 Montaditos,-0.4107268,38.370573,Point,España,2026-03-04 13:06:55.752367
Lidu,-0.4909236,38.3386899,Point,España,2026-03-04 13:06:55.752367
Restaurante Brasería Rosa de los Vientos,-0.5193092,38.339087,Point,España,2026-03-04 13:06:55.752367
Vips,-0.410647,38.3689487,Point,España,2026-03-04 13:06:55.752367
D'Tablas,-0.4826007,38.3443484,Point,España,2026-03-04 13:06:55.752367
El caldero,-0.4735931,38.3514547,Point,España,2026-03-04 13:06:55.752367
La brujula,-0.4798869,38.3419531,Point,España,2026-03-04 13:06:55.752367
Rincón de Antonio,-0.4825139,38.3475324,Point,España,2026-03-04 13:06:55.752367
,-0.4739473,38.3512998,Point,España,2026-03-04 13:06:55.752367
Castellano,-0.5109008,38.347639,Point,España,2026-03-04 13:06:55.752367
Mesón Marinero,-0.5142712,38.32855,Point,España,2026-03-04 13:06:55.752367
Pizzería Da Sebas,-0.4872698,38.3436131,Point,España,2026-03-04 13:06:55.752367
Restaurante Rias Baixas,-0.488543,38.3478969,Point,España,2026-03-04 13:06:55.752367
Repsol,-0.5090809,38.3764075,Point,España,2026-03-04 13:06:55.752367
El Rincon de Nines,-0.4800221,38.3456395,Point,España,2026-03-04 13:06:55.752367
,-0.4778126,38.1659037,Point,España,2026-03-04 13:06:55.752367
,-0.4778369,38.1657856,Point,España,2026-03-04 13:06:55.752367
,-0.4777971,38.1656397,Point,España,2026-03-04 13:06:55.752367
,-0.4776381,38.1654434,Point,España,2026-03-04 13:06:55.752367
,-0.477733,38.1655389,Point,España,2026-03-04 13:06:55.752367
Mish Mish,-0.4835948,38.3468624,Point,España,2026-03-04 13:06:55.752367
Mamma Mia,-0.4835349,38.3466347,Point,España,2026-03-04 13:06:55.752367
Santi,-0.4797986,38.3402081,Point,España,2026-03-04 13:06:55.752367
Qué Rico,-0.4802152,38.3399742,Point,España,2026-03-04 13:06:55.752367
Reina's,-0.4112741,38.3705446,Point,España,2026-03-04 13:06:55.752367
La Familia,-0.4524293,38.3591587,Point,España,2026-03-04 13:06:55.752367
Chiringuito de playa,-0.4443379,38.3632154,Point,España,2026-03-04 13:06:55.752367
Casa Filo,-0.4407412,38.3677711,Point,España,2026-03-04 13:06:55.752367
el garaje bar,-0.485479,38.3437465,Point,España,2026-03-04 13:06:55.752367
Asador La Estancia,-0.4742009,38.35004,Point,España,2026-03-04 13:06:55.752367
Le Sol,-0.4438161,38.3693171,Point,España,2026-03-04 13:06:55.752367
Chico Calla,-0.413723,38.3660277,Point,España,2026-03-04 13:06:55.752367
Sento,-0.4425044,38.3639858,Point,España,2026-03-04 13:06:55.752367
Pizzeria Popeye,-0.4144491,38.37011,Point,España,2026-03-04 13:06:55.752367
Las Brasas,-0.4311302,38.362657,Point,España,2026-03-04 13:06:55.752367
100 Montaditos,-0.4837826,38.3456817,Point,España,2026-03-04 13:06:55.752367
,-0.4123177,38.3697625,Point,España,2026-03-04 13:06:55.752367
el cielo,-0.4231065,38.3627292,Point,España,2026-03-04 13:06:55.752367
Las Brasas De San Miguel,-0.4833339,38.3454779,Point,España,2026-03-04 13:06:55.752367
Demordisco,-0.4884099,38.3493091,Point,España,2026-03-04 13:06:55.752367
Barrazero,-0.4124019,38.3817326,Point,España,2026-03-04 13:06:55.752367
Bharat,-0.4168787,38.3844063,Point,España,2026-03-04 13:06:55.752367
Kenzo,-0.4122589,38.3820964,Point,España,2026-03-04 13:06:55.752367
Don tapitas,-0.5082728,38.3309499,Point,España,2026-03-04 13:06:55.752367
La Montañeta,-0.4886564,38.3448964,Point,España,2026-03-04 13:06:55.752367
Restobar Gemma Penalva,-0.487582,38.3429903,Point,España,2026-03-04 13:06:55.752367
Restaurante Pópuli,-0.4452434,38.3702085,Point,España,2026-03-04 13:06:55.752367
The Plaice in the Corner,-0.4817233,38.3456833,Point,España,2026-03-04 13:06:55.752367
Sale & Pepe Centro,-0.4826738,38.3450668,Point,España,2026-03-04 13:06:55.752367
Sale & Pepe,-0.4854117,38.3455411,Point,España,2026-03-04 13:06:55.752367
Kento Shop,-0.4904191,38.3452777,Point,España,2026-03-04 13:06:55.752367
El Mar,-0.5209283,38.2826842,Point,España,2026-03-04 13:06:55.752367
el Saladar,-0.5209336,38.2825874,Point,España,2026-03-04 13:06:55.752367
Charlies,-0.483286,38.3453738,Point,España,2026-03-04 13:06:55.752367
Miss Sushi,-0.484919,38.3439947,Point,España,2026-03-04 13:06:55.752367
Sal y Pepe,-0.4827589,38.3451947,Point,España,2026-03-04 13:06:55.752367
Goiko Grill,-0.4882346,38.3474837,Point,España,2026-03-04 13:06:55.752367
Cocinalia,-0.4879773,38.3474092,Point,España,2026-03-04 13:06:55.752367
Da Nonna Nina,-0.4885114,38.3412753,Point,España,2026-03-04 13:06:55.752367
Las piramides,-0.4821192,38.3591127,Point,España,2026-03-04 13:06:55.752367
El Laurel Gastrobar,-0.4140362,38.3677963,Point,España,2026-03-04 13:06:55.752367
PadThaiWok,-0.4881764,38.3421612,Point,España,2026-03-04 13:06:55.752367
Cabró,-0.4865107,38.3451074,Point,España,2026-03-04 13:06:55.752367
El Verde,-0.4865762,38.3450881,Point,España,2026-03-04 13:06:55.752367
Tokyo,-0.4302203,38.3628001,Point,España,2026-03-04 13:06:55.752367
Restaurante Pepi,-0.4167199,38.3734048,Point,España,2026-03-04 13:06:55.752367
Restaurante Casa Yong,-0.4503966,38.3850051,Point,España,2026-03-04 13:06:55.752367
Restaurante Corintio,-0.4572652,38.3709929,Point,España,2026-03-04 13:06:55.752367
Aladdin,-0.4612177,38.3648074,Point,España,2026-03-04 13:06:55.752367
Colonial,-0.4619115,38.3624756,Point,España,2026-03-04 13:06:55.752367
Alkhayma. Restaurante Marroquí,-0.4537915,38.3751808,Point,España,2026-03-04 13:06:55.752367
La Vaca,-0.4601243,38.3651811,Point,España,2026-03-04 13:06:55.752367
La pequeña Galicia,-0.5003932,38.3424469,Point,España,2026-03-04 13:06:55.752367
La Barrita del Mercado,-0.4978622,38.3426754,Point,España,2026-03-04 13:06:55.752367
Amasable,-0.4900932,38.3428409,Point,España,2026-03-04 13:06:55.752367
Mister Maddox,-0.486645,38.343714,Point,España,2026-03-04 13:06:55.752367
Cervecería Sento Rambla,-0.483836,38.344891,Point,España,2026-03-04 13:06:55.752367
Sagasta 11,-0.4842471,38.3440203,Point,España,2026-03-04 13:06:55.752367
Muy Quality Food & Cocktails,-0.4856707,38.3457654,Point,España,2026-03-04 13:06:55.752367
El Burrito Kahlo,-0.4960753,38.3601231,Point,España,2026-03-04 13:06:55.752367
Finca Campoamor,-0.4864049,38.3554281,Point,España,2026-03-04 13:06:55.752367
Quina Caloreta,-0.4740513,38.3497064,Point,España,2026-03-04 13:06:55.752367
The Royce,-0.4855751,38.356279,Point,España,2026-03-04 13:06:55.752367
Bar Marisquería Irene,-0.4817488,38.3608515,Point,España,2026-03-04 13:06:55.752367
Kebab España,-0.4829082,38.3593208,Point,España,2026-03-04 13:06:55.752367
Pizza Hut,-0.4860311,38.359471,Point,España,2026-03-04 13:06:55.752367
Bar Soria,-0.4839786,38.3566853,Point,España,2026-03-04 13:06:55.752367
Spiga,-0.4826206,38.3449501,Point,España,2026-03-04 13:06:55.752367
Pika & Pika,-0.4902106,38.3391344,Point,España,2026-03-04 13:06:55.752367
Xorel•lo,-0.4919258,38.3460325,Point,España,2026-03-04 13:06:55.752367
Escuxame,-0.4910065,38.3481557,Point,España,2026-03-04 13:06:55.752367
Casona Alicantina,-0.4822827,38.3449686,Point,España,2026-03-04 13:06:55.752367
La Espiga,-0.4869213,38.3492046,Point,España,2026-03-04 13:06:55.752367
Chef's,-0.4828061,38.3448336,Point,España,2026-03-04 13:06:55.752367
Jacapaca Bar de Tapas,-0.4873195,38.3483787,Point,España,2026-03-04 13:06:55.752367
La Tapita,-0.4883224,38.3509524,Point,España,2026-03-04 13:06:55.752367
El Chuzo,-0.4882714,38.350823,Point,España,2026-03-04 13:06:55.752367
Delta 3,-0.4917204,38.3419222,Point,España,2026-03-04 13:06:55.752367
Mio Gastrobar,-0.4914033,38.3411723,Point,España,2026-03-04 13:06:55.752367
Mio Cugino,-0.4840735,38.3473262,Point,España,2026-03-04 13:06:55.752367
Mi Andaluza Rotonda,-0.5071387,38.3445088,Point,España,2026-03-04 13:06:55.752367
D'Brisas,-0.4316244,38.3594495,Point,España,2026-03-04 13:06:55.752367
Bar Noi,-0.5578252,38.3198137,Point,España,2026-03-04 13:06:55.752367
TON by Karabuena,-0.4410665,38.3892356,Point,España,2026-03-04 13:06:55.752367
El Atril,-0.500514,38.3412558,Point,España,2026-03-04 13:06:55.752367
El Txoko,-0.4965293,38.3417394,Point,España,2026-03-04 13:06:55.752367
La Bamba Gastro,-0.4967566,38.3420038,Point,España,2026-03-04 13:06:55.752367
El Chaflán,-0.5153723,38.3277463,Point,España,2026-03-04 13:06:55.752367
Plaza Canalla,-0.4853828,38.3433406,Point,España,2026-03-04 13:06:55.752367
Tapenot,-0.4854581,38.3434702,Point,España,2026-03-04 13:06:55.752367
Gomiz,-0.4767517,38.3462433,Point,España,2026-03-04 13:06:55.752367
Internacional Restaurante Asiático,-0.4260143,38.363526,Point,España,2026-03-04 13:06:55.752367
Telepizza,-0.4768104,38.3614076,Point,España,2026-03-04 13:06:55.752367
Estrella Bulevar,-0.4742285,38.3611266,Point,España,2026-03-04 13:06:55.752367
Crojiente,-0.4906138,38.3642385,Point,España,2026-03-04 13:06:55.752367
pesca al peso,-0.4820067,38.3450888,Point,España,2026-03-04 13:06:55.752367
Pizzería Da Sebas,-0.4781858,38.3626092,Point,España,2026-03-04 13:06:55.752367
Bodhigreen,-0.4863141,38.3426215,Point,España,2026-03-04 13:06:55.752367
Falafelmania Vegetariano Oriental,-0.5089442,38.3323606,Point,España,2026-03-04 13:06:55.752367
Natura Gourmet,-0.4870096,38.3480089,Point,España,2026-03-04 13:06:55.752367
Restaurante Lluvia,-0.4879504,38.3483294,Point,España,2026-03-04 13:06:55.752367
Domino's,-0.489419,38.3422429,Point,España,2026-03-04 13:06:55.752367
Bar Pepi,-0.4162842,38.373251,Point,España,2026-03-04 13:06:55.752367
Vips,-0.4714994,38.3654521,Point,España,2026-03-04 13:06:55.752367
La Bodeguita de Rocío,-0.4718237,38.3649622,Point,España,2026-03-04 13:06:55.752367
Palmitas,-0.4815666,38.3441689,Point,España,2026-03-04 13:06:55.752367
Púrpura,-0.4815373,38.3457151,Point,España,2026-03-04 13:06:55.752367
La Taberna del Barrio,-0.4834422,38.3463573,Point,España,2026-03-04 13:06:55.752367
Cervecería Restaurante Portabella,-0.4922248,38.3442323,Point,España,2026-03-04 13:06:55.752367
San Telmo,-0.4822564,38.3458374,Point,España,2026-03-04 13:06:55.752367
Restaurante Teteria,-0.4866042,38.3503658,Point,España,2026-03-04 13:06:55.752367
Cerveceria Layton,-0.4825602,38.3442883,Point,España,2026-03-04 13:06:55.752367
La Tasca del Barrio,-0.4833896,38.3463514,Point,España,2026-03-04 13:06:55.752367
L’atelier,-0.4821439,38.3456752,Point,España,2026-03-04 13:06:55.752367
4 Blooms Burgers & Fries,-0.4882781,38.3891005,Point,España,2026-03-04 13:06:55.752367
El pollo dorado,-0.4331081,38.3636206,Point,España,2026-03-04 13:06:55.752367
Apache,-0.4122856,38.3824593,Point,España,2026-03-04 13:06:55.752367
La boya,-0.4115143,38.3665249,Point,España,2026-03-04 13:06:55.752367
Foster's Hollywood,-0.5182257,38.3418625,Point,España,2026-03-04 13:06:55.752367
100 Montaditos,-0.4694078,38.3671537,Point,España,2026-03-04 13:06:55.752367
Foster's Hollywood,-0.4692201,38.3669266,Point,España,2026-03-04 13:06:55.752367
Alioli,-0.482506,38.3452653,Point,España,2026-03-04 13:06:55.752367
Pro bar,-0.442694,38.3898906,Point,España,2026-03-04 13:06:55.752367
Taberna El Chapeau,-0.4276425,38.3645889,Point,España,2026-03-04 13:06:55.752367
Daikichi,-0.4898472,38.3465648,Point,España,2026-03-04 13:06:55.752367
Telepizza,-0.4872888,38.3726991,Point,España,2026-03-04 13:06:55.752367
Alma de Barra,-0.4870245,38.3434766,Point,España,2026-03-04 13:06:55.752367
La cocina del buen comer,-0.4891067,38.3418532,Point,España,2026-03-04 13:06:55.752367
Vale,-0.4139821,38.3732873,Point,España,2026-03-04 13:06:55.752367
La mar de arroz,-0.5058714,38.3302741,Point,España,2026-03-04 13:06:55.752367
Ven y peca,-0.4319972,38.3639982,Point,España,2026-03-04 13:06:55.752367
Saona Alicante,-0.4857987,38.3476421,Point,España,2026-03-04 13:06:55.752367
Baobap Exotic,-0.4141535,38.3701556,Point,España,2026-03-04 13:06:55.752367
,-0.4817767,38.3455637,Point,España,2026-03-04 13:06:55.752367
La Taberna Santa Faz,-0.4816845,38.3454102,Point,España,2026-03-04 13:06:55.752367
,-0.4817154,38.3454723,Point,España,2026-03-04 13:06:55.752367
Altramuz,-0.4167329,38.368371,Point,España,2026-03-04 13:06:55.752367
Baobab,-0.4141641,38.3701582,Point,España,2026-03-04 13:06:55.752367
Terre,-0.4838142,38.3431843,Point,España,2026-03-04 13:06:55.752367
Keste,-0.4148912,38.3709706,Point,España,2026-03-04 13:06:55.752367
Los Charros,-0.4139784,38.3708521,Point,España,2026-03-04 13:06:55.752367
Karonte,-0.4145098,38.3717727,Point,España,2026-03-04 13:06:55.752367
La Tiá Guana Alicant,-0.4848771,38.3475706,Point,España,2026-03-04 13:06:55.752367
Bellaterra Ristorante Pizzeria,-0.4842308,38.3441467,Point,España,2026-03-04 13:06:55.752367
Da Ciro Pizzeria,-0.484789,38.344054,Point,España,2026-03-04 13:06:55.752367
Mahalo Poké Alicante,-0.4863868,38.3434931,Point,España,2026-03-04 13:06:55.752367
Burro Canaglia Bar&Resto -,-0.4851836,38.3446377,Point,España,2026-03-04 13:06:55.752367
Racó,-0.4813787,38.3448549,Point,España,2026-03-04 13:06:55.752367
Kodama,-0.4899968,38.3484321,Point,España,2026-03-04 13:06:55.752367
Chico Calla,-0.4851791,38.3439795,Point,España,2026-03-04 13:06:55.752367
Metoo Sushi Buffet,-0.502817,38.3543123,Point,España,2026-03-04 13:06:55.752367
Natsu,-0.4930757,38.3411379,Point,España,2026-03-04 13:06:55.752367
Sichimi Street Sushi Shop,-0.491569,38.3451952,Point,España,2026-03-04 13:06:55.752367
Restaurante Ying,-0.4709748,38.366786,Point,España,2026-03-04 13:06:55.752367
Plaza 6,-0.4813856,38.3456239,Point,España,2026-03-04 13:06:55.752367
Titi gourmet,-0.4811277,38.3456339,Point,España,2026-03-04 13:06:55.752367
Los primos,-0.4966647,38.351304,Point,España,2026-03-04 13:06:55.752367
,-0.6176179,38.3458045,Point,España,2026-03-04 13:06:55.752367
A La Sazón,-0.4821926,38.3441837,Point,España,2026-03-04 13:06:55.752367
Cervecería Miki,-0.4918788,38.374706,Point,España,2026-03-04 13:06:55.752367
La Terreta,-0.48585,38.3461549,Point,España,2026-03-04 13:06:55.752367
Real Chicken Food,-0.4917968,38.3400709,Point,España,2026-03-04 13:06:55.752367
Luigi,-0.4927577,38.3414555,Point,España,2026-03-04 13:06:55.752367
Himalaya,-0.4906422,38.3443695,Point,España,2026-03-04 13:06:55.752367
Da Riccardo,-0.4923704,38.3441602,Point,España,2026-03-04 13:06:55.752367
Topo Gigio,-0.4873872,38.3434839,Point,España,2026-03-04 13:06:55.752367
La Pecera,-0.4826783,38.1661885,Point,España,2026-03-04 13:06:55.752367
Casa Manolo,-0.4840784,38.3641205,Point,España,2026-03-04 13:06:55.752367
Mikel & Nelson,-0.4842004,38.3637956,Point,España,2026-03-04 13:06:55.752367
El Artesano Italiano,-0.5126928,38.3473272,Point,España,2026-03-04 13:06:55.752367
Restaurante Piedra de Jade,-0.4843305,38.3641783,Point,España,2026-03-04 13:06:55.752367
El Sorell,-0.4558744,38.3675056,Point,España,2026-03-04 13:06:55.752367
Al Paladar,-0.4886373,38.3649881,Point,España,2026-03-04 13:06:55.752367
,-0.5017921,38.3368832,Point,España,2026-03-04 13:06:55.752367
El Palacete Resto & Brunch,-0.4820725,38.3453525,Point,España,2026-03-04 13:06:55.752367
,-0.4837828,38.3467944,Point,España,2026-03-04 13:06:55.752367
La Muralla,-0.4815354,38.1668916,Point,España,2026-03-04 13:06:55.752367
Malevo,-0.4859197,38.343778,Point,España,2026-03-04 13:06:55.752367
Rice & Bones,-0.4859774,38.3467278,Point,España,2026-03-04 13:06:55.752367
Restaurante Casa Riquelme,-0.4785217,38.3525256,Point,España,2026-03-04 13:06:55.752367
Los Pacos,-0.4139587,38.3705368,Point,España,2026-03-04 13:06:55.752367
Casa Mia Italia,-0.4875695,38.3505188,Point,España,2026-03-04 13:06:55.752367
Xiringuito el postiguet,-0.4739193,38.3480948,Point,España,2026-03-04 13:06:55.752367
La Favorita Bar,-0.4870087,38.3485657,Point,España,2026-03-04 13:06:55.752367
Las Atalayas,-0.5639383,38.3408967,Point,España,2026-03-04 13:06:55.752367
Gastrobar Moscova,-0.480701,38.3458266,Point,España,2026-03-04 13:06:55.752367
Sibuya Sushi,-0.4855456,38.3480978,Point,España,2026-03-04 13:06:55.752367
Mexican Granny,-0.4794952,38.3584837,Point,España,2026-03-04 13:06:55.752367
Vagabond,-0.4827304,38.3438535,Point,España,2026-03-04 13:06:55.752367
Samana,-0.483997,38.3453897,Point,España,2026-03-04 13:06:55.752367
Egun,-0.4825139,38.3561328,Point,España,2026-03-04 13:06:55.752367
La Galería de David,-0.4929901,38.3411822,Point,España,2026-03-04 13:06:55.752367
Pizzería Popeye Fontana,-0.414482,38.369039,Point,España,2026-03-04 13:06:55.752367
,-0.449825,38.3608868,Point,España,2026-03-04 13:06:55.752367
,-0.4549404,38.3585242,Point,España,2026-03-04 13:06:55.752367
Restaurante To-Bar,-0.4391408,38.3617668,Point,España,2026-03-04 13:06:55.752367
Pipirrana Vermut,-0.483078,38.3446237,Point,España,2026-03-04 13:06:55.752367
Restaurante Triant,-0.5609964,38.4102198,Point,España,2026-03-04 13:06:55.752367
88 sushi,-0.4924088,38.3447629,Point,España,2026-03-04 13:06:55.752367
A comer!,-0.4833214,38.3595377,Point,España,2026-03-04 13:06:55.752367
Tumbes,-0.4833692,38.3592448,Point,España,2026-03-04 13:06:55.752367
Bar pizzeria Hercules,-0.4822946,38.3593659,Point,España,2026-03-04 13:06:55.752367
Moga dor,-0.4818747,38.3593858,Point,España,2026-03-04 13:06:55.752367
Kakike,-0.4819797,38.3593873,Point,España,2026-03-04 13:06:55.752367
Arroceria Casa Anna,-0.4764679,38.361982,Point,España,2026-03-04 13:06:55.752367
Tepuy,-0.4785196,38.3627466,Point,España,2026-03-04 13:06:55.752367
Chocolat,-0.5049756,38.3592502,Point,España,2026-03-04 13:06:55.752367
Casablanca,-0.4818786,38.346425,Point,España,2026-03-04 13:06:55.752367
La Fabrica,-0.481657,38.3465446,Point,España,2026-03-04 13:06:55.752367
La Voladora,-0.4866982,38.346888,Point,España,2026-03-04 13:06:55.752367
Mareando la Huerta,-0.4868575,38.3428113,Point,España,2026-03-04 13:06:55.752367
Restaurante La Casa de Asturias,-0.5198965,38.3017199,Point,España,2026-03-04 13:06:55.752367
Rincón de Pili,-0.5203198,38.3043071,Point,España,2026-03-04 13:06:55.752367
Yokocho Ramen,-0.4874283,38.3476058,Point,España,2026-03-04 13:06:55.752367
La Rotonda,-0.4862323,38.3487701,Point,España,2026-03-04 13:06:55.752367
Sukiya,-0.487625,38.3484319,Point,España,2026-03-04 13:06:55.752367
Pizzeria Napoli,-0.4834498,38.3464745,Point,España,2026-03-04 13:06:55.752367
Arrocería Daksa,-0.4107651,38.3740639,Point,España,2026-03-04 13:06:55.752367
Kababish,-0.496834,38.3428577,Point,España,2026-03-04 13:06:55.752367
La Máquina de Escribir,-0.4970478,38.3418387,Point,España,2026-03-04 13:06:55.752367
Muchos gusto (comida casera para llevar),-0.4981369,38.3426803,Point,España,2026-03-04 13:06:55.752367
Welcome India,-0.4819347,38.3451202,Point,España,2026-03-04 13:06:55.752367
Madre mia,-0.4820921,38.3451472,Point,España,2026-03-04 13:06:55.752367
Pícaro 1999,-0.483938,38.3442943,Point,España,2026-03-04 13:06:55.752367
Hizoria,-0.4840783,38.3441922,Point,España,2026-03-04 13:06:55.752367
Le Kanotier,-0.4843826,38.3440128,Point,España,2026-03-04 13:06:55.752367
Las muns,-0.4847668,38.3439399,Point,España,2026-03-04 13:06:55.752367
Kalamitsi,-0.4866144,38.3437627,Point,España,2026-03-04 13:06:55.752367
Lizarran,-0.4910736,38.3435655,Point,España,2026-03-04 13:06:55.752367
Los 3 carnalitos,-0.4845926,38.3438782,Point,España,2026-03-04 13:06:55.752367
enso sushi,-0.4845988,38.343469,Point,España,2026-03-04 13:06:55.752367
Infraganti.,-0.484458,38.3431664,Point,España,2026-03-04 13:06:55.752367
Ciao Bella,-0.4809567,38.3444091,Point,España,2026-03-04 13:06:55.752367
Che ragazzi,-0.4846587,38.3465463,Point,España,2026-03-04 13:06:55.752367
Restaurante Akasaka,-0.484076,38.3455153,Point,España,2026-03-04 13:06:55.752367
Pizzaitalia,-0.4858699,38.3455358,Point,España,2026-03-04 13:06:55.752367
La Tagliatella,-0.4853632,38.3450553,Point,España,2026-03-04 13:06:55.752367
La ddisfrutoona,-0.4851513,38.3449588,Point,España,2026-03-04 13:06:55.752367
La Picoteca,-0.4845998,38.3439908,Point,España,2026-03-04 13:06:55.752367
Taco Taco,-0.4845346,38.3439936,Point,España,2026-03-04 13:06:55.752367
Tandoori house,-0.4843116,38.3441217,Point,España,2026-03-04 13:06:55.752367
Voltereta,-0.4873278,38.3458347,Point,España,2026-03-04 13:06:55.752367
Kitagawa,-0.4902941,38.3492115,Point,España,2026-03-04 13:06:55.752367
Tumbes,-0.4897003,38.3487299,Point,España,2026-03-04 13:06:55.752367
La Xinesa,-0.4883892,38.3462839,Point,España,2026-03-04 13:06:55.752367
3F Greens,-0.4875459,38.3470022,Point,España,2026-03-04 13:06:55.752367
Baguettalia,-0.489125,38.3464098,Point,España,2026-03-04 13:06:55.752367
El Riadh,-0.486811,38.343211,Point,España,2026-03-04 13:06:55.752367
Arrocería Casa Pepe,-0.4148041,38.3640613,Point,España,2026-03-04 13:06:55.752367
Indian House,-0.4874218,38.3419112,Point,España,2026-03-04 13:06:55.752367
Taberna Rincón de Miguel 2,-0.4788917,38.3571926,Point,España,2026-03-04 13:06:55.752367
Camino de Sabores,-0.4823879,38.3474333,Point,España,2026-03-04 13:06:55.752367
Manero Alicante - Balmis,-0.4872385,38.3432386,Point,España,2026-03-04 13:06:55.752367
Mayo,-0.485285,38.3453518,Point,España,2026-03-04 13:06:55.752367
Bar Danubio,-0.5123113,38.3484611,Point,España,2026-03-04 13:06:55.752367
Cervecería Sento Barrio,-0.4826151,38.3460167,Point,España,2026-03-04 13:06:55.752367
Cervecería Sento Castellar,-0.4936775,38.3422152,Point,España,2026-03-04 13:06:55.752367
Foster's Hollywood,-0.4864816,38.338368,Point,España,2026-03-04 13:06:55.752367
Taberna La Vendimia,-0.4895266,38.3609616,Point,España,2026-03-04 13:06:55.752367
Restaurante Goyo,-0.4900517,38.34005,Point,España,2026-03-04 13:06:55.752367
L'arruzz,-0.4908851,38.3426571,Point,España,2026-03-04 13:06:55.752367
Gurume Ramen,-0.4875584,38.3467204,Point,España,2026-03-04 13:06:55.752367
Ramen Toyaki,-0.4862251,38.3469265,Point,España,2026-03-04 13:06:55.752367
Shoti Georgian Restaurant,-0.474016,38.3622953,Point,España,2026-03-04 13:06:55.752367
Makalu,-0.4866204,38.3528524,Point,España,2026-03-04 13:06:55.752367
El Sabor de Liams,-0.4802475,38.3523988,Point,España,2026-03-04 13:06:55.752367
Red,-0.4849634,38.3472502,Point,España,2026-03-04 13:06:55.752367
Donde Nakiss Brunch & Tapas,-0.4849988,38.347277,Point,España,2026-03-04 13:06:55.752367
Pizzeria Popular,-0.4901863,38.3464472,Point,España,2026-03-04 13:06:55.752367
L'arruzz,-0.4852661,38.3439663,Point,España,2026-03-04 13:06:55.752367
La Silva 1886,-0.4877249,38.3401896,Point,España,2026-03-04 13:06:55.752367
In Bocca,-0.48274,38.345121,Point,España,2026-03-04 13:06:55.752367
Sampa Picnic,-0.4797306,38.3459049,Point,España,2026-03-04 13:06:55.752367
Valcarce,-0.5665137545181674,38.338682088850234,Polygon,España,2026-03-04 13:06:55.752367
Delicious Burgers,-0.4250416708982349,38.363699496380235,Polygon,España,2026-03-04 13:06:55.752367
El Poblet de Atalayas,-0.573023963293081,38.33425513051222,Polygon,España,2026-03-04 13:06:55.752367
,-0.4392005999999996,38.371954949999996,Polygon,España,2026-03-04 13:06:55.752367
Bar Restaurante Moralet,-0.5768910605660219,38.41506442940547,Polygon,España,2026-03-04 13:06:55.752367
Ghetto Vecchio,-0.42485077456590303,38.36033041751065,Polygon,España,2026-03-04 13:06:55.752367
El Castell,-0.49801880000000054,38.35698970000001,Polygon,España,2026-03-04 13:06:55.752367
Cafetería Urbanización El Palmeral,-0.5122306513922655,38.32640600051911,Polygon,España,2026-03-04 13:06:55.752367
Béton Brut,-0.4795054383185837,38.34064626267843,Polygon,España,2026-03-04 13:06:55.752367
Ditaly Pizza Alicante,-0.4849862856111769,38.34476646571108,Polygon,España,2026-03-04 13:06:55.752367
Nostrum,-0.4890628233102892,38.34431495639764,Polygon,España,2026-03-04 13:06:55.752367
Vips,-0.4898251360811804,38.344260131928706,Polygon,España,2026-03-04 13:06:55.752367
Anita,-0.47999900558000536,38.16612229485695,Polygon,España,2026-03-04 13:06:55.752367
La Caleta,-0.4798558695445349,38.16604917328421,Polygon,España,2026-03-04 13:06:55.752367
Tere,-0.47986831739475716,38.16615093561233,Polygon,España,2026-03-04 13:06:55.752367
Restaurante buffet Colonial,-0.4618494620611662,38.36247774311675,Polygon,España,2026-03-04 13:06:55.752367
La Tonaira,-0.4823799713438883,38.16605037948855,Polygon,España,2026-03-04 13:06:55.752367
Casa Ramos,-0.481880665446551,38.166273706663,Polygon,España,2026-03-04 13:06:55.752367
Ca A Masun,-0.48273310577040857,38.16619255028753,Polygon,España,2026-03-04 13:06:55.752367
Pecados y Milagros,-0.48344905152752615,38.34678966968803,Polygon,España,2026-03-04 13:06:55.752367
Casa Gloria,-0.48101965,38.165717650000005,Polygon,España,2026-03-04 13:06:55.752367
Don Jerónimo,-0.48180417251034163,38.16673065560434,Polygon,España,2026-03-04 13:06:55.752367
,-0.45040264471322855,38.385001213762955,Polygon,España,2026-03-04 13:06:55.752367
Finca Marconi de Die,-0.45404681007832404,38.37677021790247,Polygon,España,2026-03-04 13:06:55.752367
Aladdín 2,-0.46122773421507124,38.36483013174066,Polygon,España,2026-03-04 13:06:55.752367
La Vaca. Estilo Argentino,-0.4600665034391931,38.36517845367885,Polygon,España,2026-03-04 13:06:55.752367
,-0.4536981188585714,38.3751215900486,Polygon,España,2026-03-04 13:06:55.752367
La Almadraba,-0.4801444749112135,38.166624148356384,Polygon,España,2026-03-04 13:06:55.752367
Restaurante Niza,-0.4102857268165766,38.37585634750943,Polygon,España,2026-03-04 13:06:55.752367
Restaurante Mediterráneo,-0.40986950000000005,38.380150099999994,Polygon,España,2026-03-04 13:06:55.752367
Restaurante El pintat,-0.5706535513505868,38.403134058571005,Polygon,España,2026-03-04 13:06:55.752367
La Palloza,-0.42471373381378197,38.360210654541994,Polygon,España,2026-03-04 13:06:55.752367
Mediterraneum,-0.47912352621206367,38.34457821209692,Polygon,España,2026-03-04 13:06:55.752367
Miramar,-0.4785864322978773,38.34495282271806,Polygon,España,2026-03-04 13:06:55.752367
La Tagliatella,-0.46565587047896245,38.368953379488474,Polygon,España,2026-03-04 13:06:55.752367
,-0.4638486772704741,38.369636397632206,Polygon,España,2026-03-04 13:06:55.752367
,-0.45725555000000007,38.3713453,Polygon,España,2026-03-04 13:06:55.752367
,-0.5200633521549914,38.30184167233436,Polygon,España,2026-03-04 13:06:55.752367
Bibelot,-2.4660807,36.8383732,Point,España,2026-03-04 13:06:55.752367
Pizzeria Da Bruno,-2.4650313,36.8382463,Point,España,2026-03-04 13:06:55.752367
Telepizza,-2.4618647,36.835165,Point,España,2026-03-04 13:06:55.752367
La Barraquilla,-2.3544207,36.841929,Point,España,2026-03-04 13:06:55.752367
Bello Rincón,-2.5117874,36.8261848,Point,España,2026-03-04 13:06:55.752367
Bar Barro,-2.4491833,36.8308895,Point,España,2026-03-04 13:06:55.752367
La Suerte,-2.4493891,36.8294052,Point,España,2026-03-04 13:06:55.752367
Romera,-2.4053766,36.8276287,Point,España,2026-03-04 13:06:55.752367
Sandra,-2.4648932,36.8454925,Point,España,2026-03-04 13:06:55.752367
El Albero,-2.4652152,36.8458573,Point,España,2026-03-04 13:06:55.752367
Pizza López,-2.4645285,36.846113,Point,España,2026-03-04 13:06:55.752367
La Encina,-2.4669093,36.8409659,Point,España,2026-03-04 13:06:55.752367
El Ajolí,-2.4643198,36.8392237,Point,España,2026-03-04 13:06:55.752367
Anfiteatro,-2.4581871,36.8436384,Point,España,2026-03-04 13:06:55.752367
Macrobocatas La Pantera Rosa,-2.4479284,36.8581871,Point,España,2026-03-04 13:06:55.752367
,-2.4359621,36.8170884,Point,España,2026-03-04 13:06:55.752367
Casa Blas,-2.3095538,36.8497023,Point,España,2026-03-04 13:06:55.752367
La Lonja,-2.4835888,36.8349965,Point,España,2026-03-04 13:06:55.752367
Entremares,-2.4500162,36.8274289,Point,España,2026-03-04 13:06:55.752367
Ciao Pizza,-2.4563542,36.830105,Point,España,2026-03-04 13:06:55.752367
La Tahona,-2.462622,36.838184,Point,España,2026-03-04 13:06:55.752367
Chi•tón,-2.4616663,36.8387391,Point,España,2026-03-04 13:06:55.752367
Cuentavinos,-2.4624878,36.8361661,Point,España,2026-03-04 13:06:55.752367
La Tagliatella,-2.4622733,36.8346205,Point,España,2026-03-04 13:06:55.752367
La Virgen Chica,-2.4457562,36.8274631,Point,España,2026-03-04 13:06:55.752367
La Taberna de Domi,-2.4467844,36.824753,Point,España,2026-03-04 13:06:55.752367
La Plata,-2.4565468,36.8492108,Point,España,2026-03-04 13:06:55.752367
Bar Chele,-2.4582698,36.8353316,Point,España,2026-03-04 13:06:55.752367
La Tasquilla,-2.4585763,36.8352977,Point,España,2026-03-04 13:06:55.752367
Don Paco,-2.4587946,36.8351712,Point,España,2026-03-04 13:06:55.752367
La Cabaña del Tío Tom,-2.4553865,36.8295705,Point,España,2026-03-04 13:06:55.752367
Foster's Hollywood,-2.4472839,36.8546137,Point,España,2026-03-04 13:06:55.752367
100 Montaditos,-2.4465545,36.8545268,Point,España,2026-03-04 13:06:55.752367
Ginos,-2.4620765,36.834651,Point,España,2026-03-04 13:06:55.752367
La Goleta,-2.2454458,36.7807887,Point,España,2026-03-04 13:06:55.752367
Andarax,-2.4545321,36.841901,Point,España,2026-03-04 13:06:55.752367
La Pedanía,-2.4432483,36.829917,Point,España,2026-03-04 13:06:55.752367
Portofino,-2.4526849,36.8374021,Point,España,2026-03-04 13:06:55.752367
La Bokateria 35,-2.4530444,36.8380529,Point,España,2026-03-04 13:06:55.752367
Pizza López,-2.4435653,36.8305968,Point,España,2026-03-04 13:06:55.752367
Urban Diner,-2.4425246,36.8219058,Point,España,2026-03-04 13:06:55.752367
Olea,-2.4424254,36.8279454,Point,España,2026-03-04 13:06:55.752367
La Trattoria,-2.4510347,36.8292259,Point,España,2026-03-04 13:06:55.752367
Los Cármenes,-2.4508469,36.8287278,Point,España,2026-03-04 13:06:55.752367
La Trattoria del Mar,-2.4545721,36.8291083,Point,España,2026-03-04 13:06:55.752367
Los Domínguez,-2.4467727,36.826057,Point,España,2026-03-04 13:06:55.752367
Taberna Pincho,-2.4609841,36.8392453,Point,España,2026-03-04 13:06:55.752367
Nuestra Tierra,-2.4668166,36.8408929,Point,España,2026-03-04 13:06:55.752367
Casa Puga,-2.4663514,36.840346,Point,España,2026-03-04 13:06:55.752367
LaMarca,-2.4569444,36.8378892,Point,España,2026-03-04 13:06:55.752367
La Mala,-2.4656219,36.8377443,Point,España,2026-03-04 13:06:55.752367
Miloud,-2.4663917,36.8366538,Point,España,2026-03-04 13:06:55.752367
La Consentida,-2.4651456,36.8387033,Point,España,2026-03-04 13:06:55.752367
El Chaflán,-2.4653805,36.8411102,Point,España,2026-03-04 13:06:55.752367
,-2.4650619,36.8372227,Point,España,2026-03-04 13:06:55.752367
La Hormiguita,-2.4672368,36.8361546,Point,España,2026-03-04 13:06:55.752367
La Mar Salá,-2.44665,36.8319206,Point,España,2026-03-04 13:06:55.752367
Jauja,-2.4463469,36.8350463,Point,España,2026-03-04 13:06:55.752367
Sierra Morena,-2.4509431,36.829384,Point,España,2026-03-04 13:06:55.752367
Lalola,-2.4481134,36.8268464,Point,España,2026-03-04 13:06:55.752367
Taberna Calatrava,-2.4455545,36.8262366,Point,España,2026-03-04 13:06:55.752367
,-2.4455224,36.8259425,Point,España,2026-03-04 13:06:55.752367
Mar Robles,-2.4493241,36.8291213,Point,España,2026-03-04 13:06:55.752367
Grand-Père,-2.4479255,36.8287549,Point,España,2026-03-04 13:06:55.752367
Giacomo,-2.4426169,36.82195,Point,España,2026-03-04 13:06:55.752367
Pizza Vega,-2.4461137,36.829689,Point,España,2026-03-04 13:06:55.752367
Oso Panda,-2.4463175,36.826487,Point,España,2026-03-04 13:06:55.752367
Legüetas,-2.4546723,36.8321588,Point,España,2026-03-04 13:06:55.752367
Da&Co,-2.4515135,36.8288348,Point,España,2026-03-04 13:06:55.752367
Ciudad Imperial,-2.4507571,36.8282165,Point,España,2026-03-04 13:06:55.752367
Sicilia,-2.4505273,36.8275416,Point,España,2026-03-04 13:06:55.752367
Bar Fernández,-2.2802299,36.8934094,Point,España,2026-03-04 13:06:55.752367
Bar Indalo,-2.4635501,36.8434248,Point,España,2026-03-04 13:06:55.752367
Bar Navas,-2.2434297,36.7807523,Point,España,2026-03-04 13:06:55.752367
Bar Florida,-2.458901,36.8434555,Point,España,2026-03-04 13:06:55.752367
Bodega el Abuelo,-2.4489701,36.8277253,Point,España,2026-03-04 13:06:55.752367
Restaurante Valentín,-2.4648358,36.8412071,Point,España,2026-03-04 13:06:55.752367
Troya,-2.4438761,36.8360117,Point,España,2026-03-04 13:06:55.752367
La Barquilla,-2.443455,36.8346141,Point,España,2026-03-04 13:06:55.752367
Stanley & de Marco,-2.4441872,36.8359815,Point,España,2026-03-04 13:06:55.752367
Quiosco Manuela,-2.4343969,36.8381045,Point,España,2026-03-04 13:06:55.752367
La Gambita de Almería,-2.4440313,36.8365412,Point,España,2026-03-04 13:06:55.752367
Goleta 55,-2.4397508,36.8370226,Point,España,2026-03-04 13:06:55.752367
Bar los Ángeles,-2.4504313,36.8269925,Point,España,2026-03-04 13:06:55.752367
La Pita Azul,-2.4512199,36.8280835,Point,España,2026-03-04 13:06:55.752367
El Portón de la Bahía,-2.448054,36.8250716,Point,España,2026-03-04 13:06:55.752367
Duque de Mar,-2.4549466,36.8293048,Point,España,2026-03-04 13:06:55.752367
Il Capo Mangia,-2.451278,36.8271133,Point,España,2026-03-04 13:06:55.752367
De par en par,-2.451306,36.8345138,Point,España,2026-03-04 13:06:55.752367
Alto Standing,-2.447192,36.840526,Point,España,2026-03-04 13:06:55.752367
La Tasca,-2.4470525,36.8439004,Point,España,2026-03-04 13:06:55.752367
Kai Yin,-2.4470154,36.851131,Point,España,2026-03-04 13:06:55.752367
Las Cinco Suertes,-2.4471088,36.8514643,Point,España,2026-03-04 13:06:55.752367
Marbaha,-2.4473127,36.8511437,Point,España,2026-03-04 13:06:55.752367
Asahi,-2.4469506,36.8485188,Point,España,2026-03-04 13:06:55.752367
Las Tiendas,-2.4471822,36.851136,Point,España,2026-03-04 13:06:55.752367
Hammurabi,-2.4534873,36.8408027,Point,España,2026-03-04 13:06:55.752367
La Ruta,-2.4532352,36.8421194,Point,España,2026-03-04 13:06:55.752367
Foster's Hollywood,-2.459372,36.8377194,Point,España,2026-03-04 13:06:55.752367
Torres Bermejas,-2.4578003,36.8372171,Point,España,2026-03-04 13:06:55.752367
Iceberg,-2.4589214,36.8348612,Point,España,2026-03-04 13:06:55.752367
Sakura Sushi,-2.4614676,36.8359231,Point,España,2026-03-04 13:06:55.752367
Vips,-2.4612708,36.834807,Point,España,2026-03-04 13:06:55.752367
Casa Sevilla,-2.4618576,36.8374168,Point,España,2026-03-04 13:06:55.752367
A fuego lento,-2.4470755,36.8274059,Point,España,2026-03-04 13:06:55.752367
El Quinto Toro,-2.4626024,36.8398415,Point,España,2026-03-04 13:06:55.752367
Crifer,-2.450804,36.8414804,Point,España,2026-03-04 13:06:55.752367
,-2.445903,36.8336117,Point,España,2026-03-04 13:06:55.752367
Entrevinos,-2.449964,36.8388304,Point,España,2026-03-04 13:06:55.752367
Mediterráneo,-2.2444072,36.7797544,Point,España,2026-03-04 13:06:55.752367
Sabor Sabor,-2.4456115,36.843389,Point,España,2026-03-04 13:06:55.752367
Restaurante Comida Casera,-2.2418302,36.7808679,Point,España,2026-03-04 13:06:55.752367
Teteria Almedina,-2.4698645,36.8398937,Point,España,2026-03-04 13:06:55.752367
Bahía,-2.2423937,36.7808625,Point,España,2026-03-04 13:06:55.752367
El Cable Ingles,-2.455167,36.8305518,Point,España,2026-03-04 13:06:55.752367
Casa Paquita,-2.4546495,36.8369194,Point,España,2026-03-04 13:06:55.752367
Scondite,-2.4511576,36.8390395,Point,España,2026-03-04 13:06:55.752367
La Bodeguila,-2.4650705,36.8381412,Point,España,2026-03-04 13:06:55.752367
La Lupe,-2.4654085,36.8381315,Point,España,2026-03-04 13:06:55.752367
El Rincón de Basi,-2.4634265,36.8361575,Point,España,2026-03-04 13:06:55.752367
De tal Palo,-2.4658586,36.8400891,Point,España,2026-03-04 13:06:55.752367
Mr Beers,-2.4463067,36.8349143,Point,España,2026-03-04 13:06:55.752367
Vintage 54,-2.4596004,36.8387556,Point,España,2026-03-04 13:06:55.752367
La Plazuela,-2.4660719,36.8403252,Point,España,2026-03-04 13:06:55.752367
La Bodeguica de Miguel Rei,-2.450956,36.8514601,Point,España,2026-03-04 13:06:55.752367
Restaurante Chino,-2.4146125,36.8404471,Point,España,2026-03-04 13:06:55.752367
Bar Cencerra,-2.3547332,36.852851,Point,España,2026-03-04 13:06:55.752367
Cervecería Las Tiendas,-2.465921,36.8406914,Point,España,2026-03-04 13:06:55.752367
Abordaje Gastrobar,-2.4364861,36.8174627,Point,España,2026-03-04 13:06:55.752367
Maricastaña,-2.4390718,36.8194639,Point,España,2026-03-04 13:06:55.752367
La Gruta,-2.5117381,36.8263935,Point,España,2026-03-04 13:06:55.752367
Motown,-2.4645981,36.8347683,Point,España,2026-03-04 13:06:55.752367
Bar Asociación de Vecinos,-2.3517826,36.8514149,Point,España,2026-03-04 13:06:55.752367
"Bar ""La Kika""",-2.354785,36.8504784,Point,España,2026-03-04 13:06:55.752367
Bar Mora,-2.4588569,36.8501455,Point,España,2026-03-04 13:06:55.752367
Pintamonas,-2.4579954,36.8377696,Point,España,2026-03-04 13:06:55.752367
Chiringuito Restaurante Chiri-Bus,-2.2420479,36.7772909,Point,España,2026-03-04 13:06:55.752367
Telepizza,-2.4450956,36.8433694,Point,España,2026-03-04 13:06:55.752367
Hua Du,-2.4453998,36.8433793,Point,España,2026-03-04 13:06:55.752367
Aloe Café y Té,-2.440988,36.8560596,Point,España,2026-03-04 13:06:55.752367
Restaurante Chino Shangai,-2.4576437,36.8444396,Point,España,2026-03-04 13:06:55.752367
Restaurante Hotel Blanca Brisa Cabo de Gata,-2.2385904,36.7808394,Point,España,2026-03-04 13:06:55.752367
Capitol,-2.4622284,36.8430575,Point,España,2026-03-04 13:06:55.752367
Adorada,-2.4448717,36.8548927,Point,España,2026-03-04 13:06:55.752367
UDON,-2.4333009,36.8621088,Point,España,2026-03-04 13:06:55.752367
,-2.4336296,36.8623168,Point,España,2026-03-04 13:06:55.752367
,-2.43466,36.8619994,Point,España,2026-03-04 13:06:55.752367
,-2.4339511,36.8612799,Point,España,2026-03-04 13:06:55.752367
El Lagarto,-2.3809072,36.8379755,Point,España,2026-03-04 13:06:55.752367
Versilia,-2.3191222,36.8357744,Point,España,2026-03-04 13:06:55.752367
Taberna El Andaluz,-2.4448587,36.8551673,Point,España,2026-03-04 13:06:55.752367
Manuela Marbacoa & Brasería,-2.4448393,36.8553369,Point,España,2026-03-04 13:06:55.752367
Rico,-2.4448225,36.8554135,Point,España,2026-03-04 13:06:55.752367
Restaurante Salmantice,-2.444214,36.8555179,Point,España,2026-03-04 13:06:55.752367
Lakshmi,-2.3147826,36.8332923,Point,España,2026-03-04 13:06:55.752367
100 Montaditos,-2.4353093,36.8617088,Point,España,2026-03-04 13:06:55.752367
Foster's Hollywood,-2.435493,36.8616134,Point,España,2026-03-04 13:06:55.752367
La Catrina,-2.4441726,36.835873,Point,España,2026-03-04 13:06:55.752367
Pena El Taranto,-2.4647817,36.8413967,Point,España,2026-03-04 13:06:55.752367
Tango,-2.4449253,36.8546554,Point,España,2026-03-04 13:06:55.752367
Taberna Marinera,-2.4445237,36.8548119,Point,España,2026-03-04 13:06:55.752367
,-2.4462744,36.8346888,Point,España,2026-03-04 13:06:55.752367
Asahi,-2.445183,36.8525699,Point,España,2026-03-04 13:06:55.752367
Almedina Teashop,-2.4691875,36.8393135,Point,España,2026-03-04 13:06:55.752367
Hoyo 19,-2.3187493,36.845481,Point,España,2026-03-04 13:06:55.752367
Aromas / Cristina Ulla,-2.4437862,36.8352401,Point,España,2026-03-04 13:06:55.752367
Indalpizza,-2.4425429,36.8458635,Point,España,2026-03-04 13:06:55.752367
Nan Kin,-2.457205,36.8403254,Point,España,2026-03-04 13:06:55.752367
Calafate Gastrobar,-2.4511439,36.8275544,Point,España,2026-03-04 13:06:55.752367
La Cala,-2.4502459,36.8267964,Point,España,2026-03-04 13:06:55.752367
Restaurante- Bar Playa,-2.245844,36.7812698,Point,España,2026-03-04 13:06:55.752367
Bresca,-2.4436523,36.8322467,Point,España,2026-03-04 13:06:55.752367
El Quincho,-2.4664889,36.8403967,Point,España,2026-03-04 13:06:55.752367
La Piedra Resto-Bar,-2.4505683,36.8510956,Point,España,2026-03-04 13:06:55.752367
Morena Mar & Vino,-2.4509611,36.8513946,Point,España,2026-03-04 13:06:55.752367
La Mala Tortillería,-2.465009,36.8385103,Point,España,2026-03-04 13:06:55.752367
Wakea Almería,-2.4617974,36.8353223,Point,España,2026-03-04 13:06:55.752367
Pizzería Buono,-2.4562197,36.8300198,Point,España,2026-03-04 13:06:55.752367
El barco,-2.4531227,36.8282607,Point,España,2026-03-04 13:06:55.752367
Entrefinos,-2.4643915,36.8392773,Point,España,2026-03-04 13:06:55.752367
Restaurante bar 180°,-2.4646681,36.8391991,Point,España,2026-03-04 13:06:55.752367
Taverna restaurante Joseba Anorga,-2.4648916,36.8393645,Point,España,2026-03-04 13:06:55.752367
Las Patronas,-2.4654477,36.8394964,Point,España,2026-03-04 13:06:55.752367
Restaurante Sushi Lin,-2.4383112,36.8273402,Point,España,2026-03-04 13:06:55.752367
De la bellota y el buey,-2.4567958,36.8377798,Point,España,2026-03-04 13:06:55.752367
Gastrobar Nuevo Ayala,-2.4592386,36.8436635,Point,España,2026-03-04 13:06:55.752367
Sugoi,-2.4434817,36.8224891,Point,España,2026-03-04 13:06:55.752367
Taskilla el chato,-2.4660513,36.8407198,Point,España,2026-03-04 13:06:55.752367
El Quinto,-2.4403392,36.8324129,Point,España,2026-03-04 13:06:55.752367
Comedor Universitario,-2.4058693299160567,36.82815816690621,Polygon,España,2026-03-04 13:06:55.752367
Jiménez,-2.3888485017920624,36.83301285812942,Polygon,España,2026-03-04 13:06:55.752367
Merendero El Palmeral,-2.4442625485810923,36.822331713279176,Polygon,España,2026-03-04 13:06:55.752367
Terraza del mar,-2.4394126999999997,36.818962799999994,Polygon,España,2026-03-04 13:06:55.752367
Tío Pepe,-2.438058500164361,36.81797002197235,Polygon,España,2026-03-04 13:06:55.752367
El Sevillano,-2.4403746574339307,36.819601762789155,Polygon,España,2026-03-04 13:06:55.752367
Terraza Mediterráneo,-2.445160718221484,36.856136765476066,Polygon,España,2026-03-04 13:06:55.752367
Restaurante El Parque,-2.2118238497689555,36.74339671326858,Polygon,España,2026-03-04 13:06:55.752367
Los Miras,-2.4463073096993955,36.8366793270766,Polygon,España,2026-03-04 13:06:55.752367
Almadrabillas,-2.458124489137075,36.83153574431719,Polygon,España,2026-03-04 13:06:55.752367
Cervecería 4J,-2.457194983368672,36.831188649076104,Polygon,España,2026-03-04 13:06:55.752367
d'Origen,-2.4578187012724504,36.84342470652951,Polygon,España,2026-03-04 13:06:55.752367
,-2.4413782361532492,36.86346574909015,Polygon,España,2026-03-04 13:06:55.752367
Restaurante Japonés Nagoya,-2.445528570950423,36.838189652943804,Polygon,España,2026-03-04 13:06:55.752367
El Toyo,-2.4302202984286954,36.853258429815874,Polygon,España,2026-03-04 13:06:55.752367
La Marquesina,-2.4439589455113024,36.830635331024986,Polygon,España,2026-03-04 13:06:55.752367
El Cubo del Lago,-2.319831485482486,36.835609781649175,Polygon,España,2026-03-04 13:06:55.752367
Restaurante Bellavista,-2.3701749,36.8750817,Polygon,España,2026-03-04 13:06:55.752367
,-2.423532174129393,36.84675877165171,Polygon,España,2026-03-04 13:06:55.752367
Peña Flamenca El Palmito,-2.2150378969828046,36.74730817160074,Polygon,España,2026-03-04 13:06:55.752367
Terrazza Tela Marynera,-2.31116599347395,36.849660928328106,Polygon,España,2026-03-04 13:06:55.752367
Arrozante,-2.3240112455313273,36.8370089015504,Polygon,España,2026-03-04 13:06:55.752367
,-2.2421410264936714,36.7772353710644,Polygon,España,2026-03-04 13:06:55.752367
Urtegi-alde,-2.650224,42.9531433,Point,España,2026-03-04 13:06:55.752367
Matxete,-2.6721065,42.8473623,Point,España,2026-03-04 13:06:55.752367
Kaskagorri,-2.67187,42.847368,Point,España,2026-03-04 13:06:55.752367
Sagartoki,-2.6751414,42.8459757,Point,España,2026-03-04 13:06:55.752367
Lakua,-2.6915695,42.8576714,Point,España,2026-03-04 13:06:55.752367
Ryder Cup,-2.6849541,42.8433594,Point,España,2026-03-04 13:06:55.752367
Fulitu 2,-2.6879856,42.866122,Point,España,2026-03-04 13:06:55.752367
Restaurante Chino City Oro,-2.6833867,42.8442402,Point,España,2026-03-04 13:06:55.752367
Zaldiaran jatetxea,-2.6825808,42.8447421,Point,España,2026-03-04 13:06:55.752367
Domino's,-2.6820258,42.8452108,Point,España,2026-03-04 13:06:55.752367
Domaika,-2.7175262,42.8574414,Point,España,2026-03-04 13:06:55.752367
Lagardere,-2.6813216,42.8513279,Point,España,2026-03-04 13:06:55.752367
Mesa,-2.6817131,42.851382,Point,España,2026-03-04 13:06:55.752367
Telepizza,-2.6665156,42.8503195,Point,España,2026-03-04 13:06:55.752367
Santo,-2.6695355,42.8453824,Point,España,2026-03-04 13:06:55.752367
Sokoa,-2.6692502,42.8444411,Point,España,2026-03-04 13:06:55.752367
Pato Laqueado,-2.6668327,42.8428181,Point,España,2026-03-04 13:06:55.752367
Dolomiti,-2.6756271,42.843245,Point,España,2026-03-04 13:06:55.752367
Restaurante Chino Xu,-2.6804983,42.8494616,Point,España,2026-03-04 13:06:55.752367
Asia,-2.680093,42.8523804,Point,España,2026-03-04 13:06:55.752367
The Bost,-2.6753097,42.8436205,Point,España,2026-03-04 13:06:55.752367
Casadelocos,-2.6743534,42.8428221,Point,España,2026-03-04 13:06:55.752367
Olarizu,-2.683942,42.8506577,Point,España,2026-03-04 13:06:55.752367
Conde de Álava,-2.6799009,42.8528396,Point,España,2026-03-04 13:06:55.752367
Los Huetos,-2.7038064,42.8548148,Point,España,2026-03-04 13:06:55.752367
,-2.6856272,42.8509084,Point,España,2026-03-04 13:06:55.752367
Trattoria da Luigi,-2.6869368,42.8612089,Point,España,2026-03-04 13:06:55.752367
Atenea,-2.6663553,42.8454973,Point,España,2026-03-04 13:06:55.752367
Urizar,-2.6862517,42.8627124,Point,España,2026-03-04 13:06:55.752367
Albeniz,-2.6687132,42.847143,Point,España,2026-03-04 13:06:55.752367
Sarria,-2.6684951,42.8471169,Point,España,2026-03-04 13:06:55.752367
Zabala,-2.672427,42.8470289,Point,España,2026-03-04 13:06:55.752367
La Malquerida,-2.6733467,42.8472805,Point,España,2026-03-04 13:06:55.752367
Krunch,-2.6703368,42.8439654,Point,España,2026-03-04 13:06:55.752367
El Rincón de Luis Mari,-2.6685049,42.8432358,Point,España,2026-03-04 13:06:55.752367
Sukalki,-2.6695744,42.8428064,Point,España,2026-03-04 13:06:55.752367
Arriola,-2.6928463,42.8561204,Point,España,2026-03-04 13:06:55.752367
Kalezar,-2.669542,42.8619496,Point,España,2026-03-04 13:06:55.752367
Krunch,-2.6691646,42.8618564,Point,España,2026-03-04 13:06:55.752367
Shahi Curry,-2.717137,42.9120264,Point,España,2026-03-04 13:06:55.752367
Rosi,-2.6745008,42.8484334,Point,España,2026-03-04 13:06:55.752367
Arkupe,-2.6723425,42.8470218,Point,España,2026-03-04 13:06:55.752367
Shibuya,-2.6727883,42.8467638,Point,España,2026-03-04 13:06:55.752367
Rio de Oro,-2.6731695,42.8433143,Point,España,2026-03-04 13:06:55.752367
Klandestino,-2.6656564,42.8439854,Point,España,2026-03-04 13:06:55.752367
Lasai,-2.6683457,42.8435104,Point,España,2026-03-04 13:06:55.752367
El Mesón,-2.670505,42.8432444,Point,España,2026-03-04 13:06:55.752367
Grosso Napoletano,-2.670887,42.8438952,Point,España,2026-03-04 13:06:55.752367
Iradier,-2.6713733,42.8421803,Point,España,2026-03-04 13:06:55.752367
Dando la Lata Ematen,-2.6606855,42.8465618,Point,España,2026-03-04 13:06:55.752367
Mesón Lemar,-2.6601247,42.848584,Point,España,2026-03-04 13:06:55.752367
Marmitaco,-2.6613963,42.8503119,Point,España,2026-03-04 13:06:55.752367
,-2.6520765,42.8523859,Point,España,2026-03-04 13:06:55.752367
Pintabocas,-2.666002,42.8446889,Point,España,2026-03-04 13:06:55.752367
Ginos,-2.6693685,42.8622703,Point,España,2026-03-04 13:06:55.752367
Alder,-2.7007628,42.8553191,Point,España,2026-03-04 13:06:55.752367
Amarika,-2.6731789,42.8427119,Point,España,2026-03-04 13:06:55.752367
La Roca,-2.6724121,42.8426442,Point,España,2026-03-04 13:06:55.752367
Taiwan,-2.6789982,42.8512037,Point,España,2026-03-04 13:06:55.752367
Andere,-2.6798948,42.8491789,Point,España,2026-03-04 13:06:55.752367
Telepizza,-2.6972507,42.8434887,Point,España,2026-03-04 13:06:55.752367
De mil arroces,-2.6636227,42.8454844,Point,España,2026-03-04 13:06:55.752367
Telepizza,-2.6682199,42.8394387,Point,España,2026-03-04 13:06:55.752367
Karmine,-2.6640692,42.8423519,Point,España,2026-03-04 13:06:55.752367
Oriente,-2.6655545,42.8442942,Point,España,2026-03-04 13:06:55.752367
Aurora Etxea,-2.6620129,42.8381268,Point,España,2026-03-04 13:06:55.752367
Las Trianas,-2.6622019,42.838643,Point,España,2026-03-04 13:06:55.752367
Erdialde,-2.6661417,42.8449706,Point,España,2026-03-04 13:06:55.752367
Zhou,-2.6650448,42.8453576,Point,España,2026-03-04 13:06:55.752367
Itsaso,-2.6638101,42.8508192,Point,España,2026-03-04 13:06:55.752367
Duomo`s pizza,-2.6624077,42.8496845,Point,España,2026-03-04 13:06:55.752367
Ideal,-2.6714383,42.8551048,Point,España,2026-03-04 13:06:55.752367
Natxo,-2.6766941,42.8543939,Point,España,2026-03-04 13:06:55.752367
Genesis,-2.6828288,42.8668937,Point,España,2026-03-04 13:06:55.752367
Intxaursalsa,-2.6840652,42.8599591,Point,España,2026-03-04 13:06:55.752367
Mesón Jabugo,-2.6755567,42.8458974,Point,España,2026-03-04 13:06:55.752367
Parlamento,-2.6757517,42.8458608,Point,España,2026-03-04 13:06:55.752367
Gollete,-2.6684525,42.8451261,Point,España,2026-03-04 13:06:55.752367
Kanziller,-2.6647794,42.8432378,Point,España,2026-03-04 13:06:55.752367
Atxalde,-2.6657803,42.8435946,Point,España,2026-03-04 13:06:55.752367
Querida María,-2.6727412,42.8502035,Point,España,2026-03-04 13:06:55.752367
EsenCia,-2.6623446,42.846871,Point,España,2026-03-04 13:06:55.752367
Txabola,-2.6627073,42.8473678,Point,España,2026-03-04 13:06:55.752367
bufett,-2.6689446,42.8454113,Point,España,2026-03-04 13:06:55.752367
Sidrería Armentia,-2.6997189,42.8333354,Point,España,2026-03-04 13:06:55.752367
,-2.6451455,42.8929176,Point,España,2026-03-04 13:06:55.752367
Aiuri,-2.6606186,42.8359685,Point,España,2026-03-04 13:06:55.752367
Muskari,-2.6643703,42.8445151,Point,España,2026-03-04 13:06:55.752367
Centro social Bóveda,-3.2037963,42.9066856,Point,España,2026-03-04 13:06:55.752367
Neithea,-3.205002,42.9070252,Point,España,2026-03-04 13:06:55.752367
Taberna La Era,-2.9442187,42.8375448,Point,España,2026-03-04 13:06:55.752367
Restaurante Mano Lenta,-2.6822689,42.8485968,Point,España,2026-03-04 13:06:55.752367
Telepizza,-2.6828529,42.8481736,Point,España,2026-03-04 13:06:55.752367
La Marina,-2.6874372,42.841991,Point,España,2026-03-04 13:06:55.752367
Benta Zaharra,-2.640381,42.8501591,Point,España,2026-03-04 13:06:55.752367
,-2.6411534,42.8508513,Point,España,2026-03-04 13:06:55.752367
Sushi King,-2.6644821,42.8436537,Point,España,2026-03-04 13:06:55.752367
Haritz Ondo,-2.6790207,42.9759325,Point,España,2026-03-04 13:06:55.752367
Jatorrena,-2.7945329,42.589737,Point,España,2026-03-04 13:06:55.752367
Itxasberri,-2.6605121,42.8496955,Point,España,2026-03-04 13:06:55.752367
Koipe,-2.4144143,42.9088467,Point,España,2026-03-04 13:06:55.752367
Tandoori,-2.6966427,42.8433561,Point,España,2026-03-04 13:06:55.752367
Maiton,-2.6985929,42.8422843,Point,España,2026-03-04 13:06:55.752367
Zadorra,-2.6956035,42.8402334,Point,España,2026-03-04 13:06:55.752367
Alai,-2.7918738,42.588655,Point,España,2026-03-04 13:06:55.752367
Ariño,-2.7917259,42.5891544,Point,España,2026-03-04 13:06:55.752367
Begotxu,-2.7918342,42.5892469,Point,España,2026-03-04 13:06:55.752367
Taberna del Kuto,-2.6985468,42.8457851,Point,España,2026-03-04 13:06:55.752367
Bodegon,-2.7914599,42.5891045,Point,España,2026-03-04 13:06:55.752367
Bayona,-2.698316,42.8621447,Point,España,2026-03-04 13:06:55.752367
José Luis,-2.7943383,42.5894865,Point,España,2026-03-04 13:06:55.752367
San Gines,-2.7825636,42.6056144,Point,España,2026-03-04 13:06:55.752367
Circular,-2.6544686,42.8547699,Point,España,2026-03-04 13:06:55.752367
Arkatza,-2.6575569,42.8343097,Point,España,2026-03-04 13:06:55.752367
Xixilu,-2.6737546,42.8429762,Point,España,2026-03-04 13:06:55.752367
Berlin,-2.6817689,42.8460699,Point,España,2026-03-04 13:06:55.752367
La Traviesa,-2.5846035,42.6261698,Point,España,2026-03-04 13:06:55.752367
La Fabrica,-2.6462128,42.8742727,Point,España,2026-03-04 13:06:55.752367
El 10,-2.654249,42.8636415,Point,España,2026-03-04 13:06:55.752367
Zubigain,-2.3161531,42.8892636,Point,España,2026-03-04 13:06:55.752367
Umandi,-2.3175035,42.8900781,Point,España,2026-03-04 13:06:55.752367
Telepizza,-2.6953482,42.8650183,Point,España,2026-03-04 13:06:55.752367
Barrachi,-2.6533271,42.8716077,Point,España,2026-03-04 13:06:55.752367
BAKH,-2.6445999,42.8614465,Point,España,2026-03-04 13:06:55.752367
Uriko Taberna,-2.5396863,42.9245248,Point,España,2026-03-04 13:06:55.752367
Ataria,-2.6541025,42.8576456,Point,España,2026-03-04 13:06:55.752367
Aldaia,-2.7483432,42.8292974,Point,España,2026-03-04 13:06:55.752367
Om,-2.7076086,42.8399974,Point,España,2026-03-04 13:06:55.752367
,-2.8744862,42.9660019,Point,España,2026-03-04 13:06:55.752367
AS Hotel Altube,-2.8691433,42.9666692,Point,España,2026-03-04 13:06:55.752367
Jango,-2.6707314,42.8482689,Point,España,2026-03-04 13:06:55.752367
Pintozzeria,-2.6703582,42.8474604,Point,España,2026-03-04 13:06:55.752367
Domino's,-2.6500473,42.8488546,Point,España,2026-03-04 13:06:55.752367
Koxka,-2.649893,42.8480238,Point,España,2026-03-04 13:06:55.752367
Cube,-2.6680097,42.8494684,Point,España,2026-03-04 13:06:55.752367
Bai bidea,-2.3155899,42.8896498,Point,España,2026-03-04 13:06:55.752367
Sidrería Asador,-2.3152438,42.8851779,Point,España,2026-03-04 13:06:55.752367
,-2.6479819,42.8758696,Point,España,2026-03-04 13:06:55.752367
La Sidre,-2.7000804,42.8328792,Point,España,2026-03-04 13:06:55.752367
Telepizza,-2.6503363,42.8500781,Point,España,2026-03-04 13:06:55.752367
Raíz,-2.7043403,42.8427508,Point,España,2026-03-04 13:06:55.752367
,-2.775258,42.6025063,Point,España,2026-03-04 13:06:55.752367
La Caprichosa,-2.6181203,42.5158283,Point,España,2026-03-04 13:06:55.752367
Florida,-2.6181525,42.5149347,Point,España,2026-03-04 13:06:55.752367
Lola,-2.8586841,42.6826619,Point,España,2026-03-04 13:06:55.752367
Santuario de Ibernalo,-2.3339374,42.6662188,Point,España,2026-03-04 13:06:55.752367
Kaixo,-2.6656444,42.8450277,Point,España,2026-03-04 13:06:55.752367
Marañón,-2.6688115,42.8463303,Point,España,2026-03-04 13:06:55.752367
Amaranto,-2.6689259,42.846169,Point,España,2026-03-04 13:06:55.752367
Casino,-2.350079,42.6704978,Point,España,2026-03-04 13:06:55.752367
Oh,-2.6694718,42.8344984,Point,España,2026-03-04 13:06:55.752367
Batzoki,-3.0983567,42.847032,Point,España,2026-03-04 13:06:55.752367
Kresta,-2.7038369,42.8424292,Point,España,2026-03-04 13:06:55.752367
Tragoska,-2.6658516,42.8541795,Point,España,2026-03-04 13:06:55.752367
Larrain,-2.6916468,42.8570925,Point,España,2026-03-04 13:06:55.752367
Bar Las Ventas,-2.2512747,42.8665203,Point,España,2026-03-04 13:06:55.752367
La bodegilla Lanciego,-2.6625947,42.8453598,Point,España,2026-03-04 13:06:55.752367
Enzo,-2.6865207,42.845125,Point,España,2026-03-04 13:06:55.752367
La Tagliatella,-2.6797645,42.8469724,Point,España,2026-03-04 13:06:55.752367
PerretxiCo,-2.6741174,42.8450396,Point,España,2026-03-04 13:06:55.752367
Margara,-2.8127116,42.8168134,Point,España,2026-03-04 13:06:55.752367
Zurbano,-2.6187114,42.8693892,Point,España,2026-03-04 13:06:55.752367
Duyi Sushi Bubble Tea,-2.677364,42.8515381,Point,España,2026-03-04 13:06:55.752367
Lupita y Burriquín,-2.6739841,42.8477131,Point,España,2026-03-04 13:06:55.752367
,-2.667357,42.8463926,Point,España,2026-03-04 13:06:55.752367
Waska,-2.6752891,42.8486195,Point,España,2026-03-04 13:06:55.752367
Aldaia Taberna,-2.4602457,42.9143008,Point,España,2026-03-04 13:06:55.752367
Ruperto,-2.9909163,43.0690662,Point,España,2026-03-04 13:06:55.752367
La Encina,-3.1303863,43.1223349,Point,España,2026-03-04 13:06:55.752367
Restaurante Frontón,-2.9001439,42.9522821,Point,España,2026-03-04 13:06:55.752367
Akeita Pizza,-3.0024307,43.0523176,Point,España,2026-03-04 13:06:55.752367
Doña Blanca,-2.5837419,42.5530289,Point,España,2026-03-04 13:06:55.752367
Abendañoko batzoki,-2.6836393,42.8513251,Point,España,2026-03-04 13:06:55.752367
Bar Restaurante Doña Lola,-2.9031131,42.9541962,Point,España,2026-03-04 13:06:55.752367
Don Producto y Tú,-2.6974471,42.8386,Point,España,2026-03-04 13:06:55.752367
Kotarro,-2.680098,42.8476307,Point,España,2026-03-04 13:06:55.752367
La Kabaña,-3.0508601,42.810505,Point,España,2026-03-04 13:06:55.752367
Obenkun,-2.3618581,42.7443008,Point,España,2026-03-04 13:06:55.752367
Restaurante Hostel Plaza,-2.9865759,42.8020633,Point,España,2026-03-04 13:06:55.752367
,-2.9860577,42.8020057,Point,España,2026-03-04 13:06:55.752367
Centro Sociocultural Perretxiko,-2.4938006,42.917516,Point,España,2026-03-04 13:06:55.752367
Sociedad Recreativa-Cultural Lezo,-2.3868886,42.8481237,Point,España,2026-03-04 13:06:55.752367
El Bodegon,-2.5851111,42.5540806,Point,España,2026-03-04 13:06:55.752367
La Mafia,-2.6827657,42.8439433,Point,España,2026-03-04 13:06:55.752367
Japonés,-2.6831837,42.8442125,Point,España,2026-03-04 13:06:55.752367
Taberna Carey,-2.6847688,42.8444446,Point,España,2026-03-04 13:06:55.752367
Buenos Aires,-2.6841784,42.8422403,Point,España,2026-03-04 13:06:55.752367
La Casa de Napoleón,-2.6873633,42.8412205,Point,España,2026-03-04 13:06:55.752367
Bericus,-2.6885425,42.8401508,Point,España,2026-03-04 13:06:55.752367
Los Guaranis,-2.6844985,42.8421323,Point,España,2026-03-04 13:06:55.752367
El Chispial,-2.6889583,42.8447375,Point,España,2026-03-04 13:06:55.752367
Los Roturos,-2.4466495,42.7384824,Point,España,2026-03-04 13:06:55.752367
Restaurante El Origen,-2.7002127,42.8494837,Point,España,2026-03-04 13:06:55.752367
Gurea,-2.6791743,42.8564708,Point,España,2026-03-04 13:06:55.752367
Trujal,-2.4711152,42.5666758,Point,España,2026-03-04 13:06:55.752367
Trafalgar,-2.6744886,42.8475134,Point,España,2026-03-04 13:06:55.752367
Asador Ekume,-2.6818201,42.8747896,Point,España,2026-03-04 13:06:55.752367
Asador Hondarribia,-2.6951574,42.8660577,Point,España,2026-03-04 13:06:55.752367
Restaurante Odela,-2.6777495,42.8503947,Point,España,2026-03-04 13:06:55.752367
Restaurante Kromatiko,-2.6756798,42.8493446,Point,España,2026-03-04 13:06:55.752367
Erkiaga,-2.6745098,42.8481521,Point,España,2026-03-04 13:06:55.752367
Vinum,-2.6879852,42.8405486,Point,España,2026-03-04 13:06:55.752367
Asador Orio,-2.6869981,42.8408082,Point,España,2026-03-04 13:06:55.752367
Orense,-2.6741731,42.8510382,Point,España,2026-03-04 13:06:55.752367
Goiz Argi,-2.6718128,42.8507108,Point,España,2026-03-04 13:06:55.752367
Etxezarra,-2.6722205,42.8512948,Point,España,2026-03-04 13:06:55.752367
Urkiola,-2.6692218,42.8527372,Point,España,2026-03-04 13:06:55.752367
Jan Alai,-2.6708244,42.8518346,Point,España,2026-03-04 13:06:55.752367
Barrón,-2.6701485,42.8474524,Point,España,2026-03-04 13:06:55.752367
Angolo di Trastevere,-2.6704039,42.8488512,Point,España,2026-03-04 13:06:55.752367
La Riojana,-2.6710993,42.848885,Point,España,2026-03-04 13:06:55.752367
El 7,-2.6707468,42.8478301,Point,España,2026-03-04 13:06:55.752367
Restaurante Izartza,-2.6720126,42.8463629,Point,España,2026-03-04 13:06:55.752367
,-2.6635703,42.9105372,Point,España,2026-03-04 13:06:55.752367
La Fonda,-2.6810813,42.8490569,Point,España,2026-03-04 13:06:55.752367
Bar Laredo,-2.6343508,42.5656753,Point,España,2026-03-04 13:06:55.752367
Etxe Zuri,-2.5908894,42.9584123,Point,España,2026-03-04 13:06:55.752367
Amua Jatetxea,-2.6811128,42.8341586,Point,España,2026-03-04 13:06:55.752367
Real II,-2.7072196,42.8393525,Point,España,2026-03-04 13:06:55.752367
Restaurante Nagusi,-2.8205859,42.9564191,Point,España,2026-03-04 13:06:55.752367
Capricho de Baco,-2.5843531,42.5537148,Point,España,2026-03-04 13:06:55.752367
Herriko Jatetxea,-2.670627,42.8477867,Point,España,2026-03-04 13:06:55.752367
Hotel-Restaurante Biazteri,-2.5848553,42.55254,Point,España,2026-03-04 13:06:55.752367
guridi,-2.4355455,42.5032617,Point,España,2026-03-04 13:06:55.752367
avenida 36,-2.4358608,42.5012721,Point,España,2026-03-04 13:06:55.752367
Asador Argote,-2.6758029,42.8506205,Point,España,2026-03-04 13:06:55.752367
Okuru,-2.6793759,42.8471874,Point,España,2026-03-04 13:06:55.752367
Foster's Hollywood,-2.6796093,42.8476687,Point,España,2026-03-04 13:06:55.752367
Aupa,-2.6794852,42.8483324,Point,España,2026-03-04 13:06:55.752367
Palacio de Añana,-2.9869854,42.8020474,Point,España,2026-03-04 13:06:55.752367
Erpidea,-2.607401,42.9380509,Point,España,2026-03-04 13:06:55.752367
Restaurante Deslorian,-2.6823445,42.8473219,Point,España,2026-03-04 13:06:55.752367
Restaurante Artzegi,-2.7286799,42.9584775,Point,España,2026-03-04 13:06:55.752367
,-3.0280906,42.7460525,Point,España,2026-03-04 13:06:55.752367
Mesón Okondo,-3.0295014,43.1524096,Point,España,2026-03-04 13:06:55.752367
Karrika,-2.9687962,43.1343052,Point,España,2026-03-04 13:06:55.752367
Black Salad,-2.6671067,42.8412954,Point,España,2026-03-04 13:06:55.752367
La Hiedra,-2.6602621,42.8498896,Point,España,2026-03-04 13:06:55.752367
Asador Baias,-2.897528,42.8237823,Point,España,2026-03-04 13:06:55.752367
Taberna Berria,-2.5849113,42.5541033,Point,España,2026-03-04 13:06:55.752367
Entreviñas y olivos,-2.5850154,42.5546578,Point,España,2026-03-04 13:06:55.752367
Posada Mayor de Migeloa,-2.5853732,42.5542744,Point,España,2026-03-04 13:06:55.752367
Cueva de Lobos,-2.5843487,42.5537863,Point,España,2026-03-04 13:06:55.752367
Marixa,-2.5836149,42.5530466,Point,España,2026-03-04 13:06:55.752367
Bar Hiruko,-2.5846414,42.5534539,Point,España,2026-03-04 13:06:55.752367
Los Parajes,-2.5851842,42.5534868,Point,España,2026-03-04 13:06:55.752367
Amelibia,-2.5832388,42.5521301,Point,España,2026-03-04 13:06:55.752367
El Medoc,-2.5802236,42.5485461,Point,España,2026-03-04 13:06:55.752367
Villa Lucia espacio gastronómico,-2.5779592,42.5483125,Point,España,2026-03-04 13:06:55.752367
Las Postas,-2.5792317,42.5473032,Point,España,2026-03-04 13:06:55.752367
La Cassette,-2.6692254,42.8477566,Point,España,2026-03-04 13:06:55.752367
Savastano Pizzería,-2.6692642,42.847981,Point,España,2026-03-04 13:06:55.752367
Merendero Asador Rosa,-2.815599,42.8176536,Point,España,2026-03-04 13:06:55.752367
Siglo XXI,-2.8073351,42.8177618,Point,España,2026-03-04 13:06:55.752367
Jatorki,-2.6701968,42.8476728,Point,España,2026-03-04 13:06:55.752367
María la gorda II,-2.6700877,42.847662,Point,España,2026-03-04 13:06:55.752367
La Rubia,-2.6746346,42.8450537,Point,España,2026-03-04 13:06:55.752367
Las conchas,-2.8494586,42.6355695,Point,España,2026-03-04 13:06:55.752367
Antojo,-3.0433319,43.077133,Point,España,2026-03-04 13:06:55.752367
El Toboso,-3.0435085,43.0772635,Point,España,2026-03-04 13:06:55.752367
Dukiena jatetxea,-2.5568856,43.0415582,Point,España,2026-03-04 13:06:55.752367
Dani,-3.0025319,43.0304487,Point,España,2026-03-04 13:06:55.752367
,-2.6723438,42.8470136,Point,España,2026-03-04 13:06:55.752367
Manolo,-2.6701156,42.8611285,Point,España,2026-03-04 13:06:55.752367
La Carballinesa,-2.6732687,42.856629,Point,España,2026-03-04 13:06:55.752367
Restaurante arasur,-2.9197401,42.700837,Point,España,2026-03-04 13:06:55.752367
La Dolce Vita,-2.6706093,42.8490489,Point,España,2026-03-04 13:06:55.752367
Amalur jatetxea,-2.6708886,42.8499226,Point,España,2026-03-04 13:06:55.752367
Bar-Restaurante Comemé,-2.6740327,42.8480212,Point,España,2026-03-04 13:06:55.752367
Restaurante-Bar Néstor,-2.6740104,42.847844,Point,España,2026-03-04 13:06:55.752367
El fresno,-3.1539479,43.1129345,Point,España,2026-03-04 13:06:55.752367
Montenegro,-3.1557115,43.1111088,Point,España,2026-03-04 13:06:55.752367
Isla Sicilia,-2.7018828,42.8423065,Point,España,2026-03-04 13:06:55.752367
Don Carlos,-2.6995917,42.8451208,Point,España,2026-03-04 13:06:55.752367
K Roka,-2.684285,42.8449942,Point,España,2026-03-04 13:06:55.752367
Gesaltza,-2.9897782,42.8032142,Point,España,2026-03-04 13:06:55.752367
Bar-restaurante Gorostiola,-3.0259751,43.1606187,Point,España,2026-03-04 13:06:55.752367
Arrea!,-2.3505284,42.6689511,Point,España,2026-03-04 13:06:55.752367
Andollu,-2.5690563,42.8303119,Point,España,2026-03-04 13:06:55.752367
Guzurtegui,-3.0590558,43.0521048,Point,España,2026-03-04 13:06:55.752367
Azteka,-2.680325,42.8581593,Point,España,2026-03-04 13:06:55.752367
Dana Ona,-2.3946473,42.8486025,Point,España,2026-03-04 13:06:55.752367
El Méxicano y mucho más,-2.6812819,42.8441894,Point,España,2026-03-04 13:06:55.752367
Restaurante El Tulipán de Oro,-2.673119,42.8516822,Point,España,2026-03-04 13:06:55.752367
,-3.0686555,42.8424828,Point,España,2026-03-04 13:06:55.752367
El Crucero,-2.6440925,42.9752501,Point,España,2026-03-04 13:06:55.752367
La Posada,-2.6441381,42.9751324,Point,España,2026-03-04 13:06:55.752367
Petralanda Jatetxea,-2.7955861,42.590084,Point,España,2026-03-04 13:06:55.752367
,-2.668278,42.8489863,Point,España,2026-03-04 13:06:55.752367
Camilo,-2.675316,42.8538134,Point,España,2026-03-04 13:06:55.752367
Máster Kebab,-2.6763682,42.853646,Point,España,2026-03-04 13:06:55.752367
El Pimpollo,-2.6730476,42.8525244,Point,España,2026-03-04 13:06:55.752367
"Restaurante Arabe
Cocina Arabe",-2.6741579,42.8538793,Point,España,2026-03-04 13:06:55.752367
Laua,-2.4294966,42.8348869,Point,España,2026-03-04 13:06:55.752367
Casa Areso,-2.8219455,42.9564887,Point,España,2026-03-04 13:06:55.752367
La Guerrillera,-2.691306,42.8566346,Point,España,2026-03-04 13:06:55.752367
Isabe,-2.3573469,42.6705572,Point,España,2026-03-04 13:06:55.752367
Kirika,-2.7037344,42.8361321,Point,España,2026-03-04 13:06:55.752367
Suvia Taberna,-2.5849039,42.5526733,Point,España,2026-03-04 13:06:55.752367
Fuxiang,-2.6639158,42.8491179,Point,España,2026-03-04 13:06:55.752367
Gojain Jatetxea,-2.6446182,42.9435245,Point,España,2026-03-04 13:06:55.752367
La Escotilla,-2.6736687,42.8442545,Point,España,2026-03-04 13:06:55.752367
Villa Florida,-3.0014315,43.0552729,Point,España,2026-03-04 13:06:55.752367
Aspaldiko,-3.0022424,43.0544246,Point,España,2026-03-04 13:06:55.752367
La Brasserie,-2.6693177,42.8625343,Point,España,2026-03-04 13:06:55.752367
Pizza Hut,-2.6693697,42.8624758,Point,España,2026-03-04 13:06:55.752367
La Tagliatella,-2.6692361,42.8626257,Point,España,2026-03-04 13:06:55.752367
Taj Majal,-2.6694254,42.8490209,Point,España,2026-03-04 13:06:55.752367
Arcos de Quejana,-3.0725144,43.0806744,Point,España,2026-03-04 13:06:55.752367
El Puntido,-2.6062401,42.5538288,Point,España,2026-03-04 13:06:55.752367
Wayoyo,-2.6700851,42.8477215,Point,España,2026-03-04 13:06:55.752367
New Kingston,-2.6696133,42.847836,Point,España,2026-03-04 13:06:55.752367
India Gate,-2.6696854,42.8481921,Point,España,2026-03-04 13:06:55.752367
,-2.5853762,42.5548496,Point,España,2026-03-04 13:06:55.752367
Pattaya,-2.6694137,42.8435751,Point,España,2026-03-04 13:06:55.752367
1583,-2.6158682,42.5142819,Point,España,2026-03-04 13:06:55.752367
Comedor Bauza,-2.615181,42.5158845,Point,España,2026-03-04 13:06:55.752367
El Mexicano Y Mucho Más,-2.6881076,42.8492051,Point,España,2026-03-04 13:06:55.752367
Akeita,-3.000281,43.0528711,Point,España,2026-03-04 13:06:55.752367
Ta-Than,-2.6720206,42.8378826,Point,España,2026-03-04 13:06:55.752367
El Guambrita,-2.6693036,42.8383694,Point,España,2026-03-04 13:06:55.752367
Albizabal,-3.0033504,43.0519858,Point,España,2026-03-04 13:06:55.752367
Lio,-2.9628029,43.1406723,Point,España,2026-03-04 13:06:55.752367
El Infierno,-2.9859829,42.9659887,Point,España,2026-03-04 13:06:55.752367
Toki-On,-2.9719888,43.1417384,Point,España,2026-03-04 13:06:55.752367
Erdizka taberna,-2.6707636,42.8480342,Point,España,2026-03-04 13:06:55.752367
Mulán,-2.9667343,43.1365745,Point,España,2026-03-04 13:06:55.752367
Krunch,-2.6686907,42.861958,Point,España,2026-03-04 13:06:55.752367
Ginos,-2.6686299,42.8614859,Point,España,2026-03-04 13:06:55.752367
Chops! Green & Grill,-2.6686467,42.8618701,Point,España,2026-03-04 13:06:55.752367
Bobby's,-2.6687802,42.861979,Point,España,2026-03-04 13:06:55.752367
Kalezar,-2.6688639,42.8619054,Point,España,2026-03-04 13:06:55.752367
Vitoria,-2.6802954,42.84365,Point,España,2026-03-04 13:06:55.752367
Berenjenal,-2.6728692,42.8441796,Point,España,2026-03-04 13:06:55.752367
Milki,-2.6158501,42.5145475,Point,España,2026-03-04 13:06:55.752367
Goiko,-2.6706448,42.8432162,Point,España,2026-03-04 13:06:55.752367
Ballarin jatetxea,-2.6739693,42.8467712,Point,España,2026-03-04 13:06:55.752367
Larrea,-2.9589394,43.1446442,Point,España,2026-03-04 13:06:55.752367
El Caserón,-2.7042953862105383,42.832073543527194,Polygon,España,2026-03-04 13:06:55.752367
El Portalón,-2.6732579737088047,42.85144047342737,Polygon,España,2026-03-04 13:06:55.752367
Restaurante del Centro Gallego de Vitoria-Gasteiz,-2.682442007125263,42.86650246661108,Polygon,España,2026-03-04 13:06:55.752367
Séneca,-2.682865,42.86633749999999,Polygon,España,2026-03-04 13:06:55.752367
El Hórreo,-2.683552894174431,42.86605909376768,Polygon,España,2026-03-04 13:06:55.752367
El mirador de Salburua,-2.6490013556363654,42.86428275849858,Polygon,España,2026-03-04 13:06:55.752367
Club Náutico,-2.6024732172436615,42.941238588376926,Polygon,España,2026-03-04 13:06:55.752367
Restaurante Ikea,-2.680710526291028,42.843077078911435,Polygon,España,2026-03-04 13:06:55.752367
Lapatza,-2.6493549610933997,42.90570137139443,Polygon,España,2026-03-04 13:06:55.752367
Catering,-2.5722563398898424,42.847898791056345,Polygon,España,2026-03-04 13:06:55.752367
Ruta de Europa,-2.779800538685025,42.817975907465865,Polygon,España,2026-03-04 13:06:55.752367
Sidrería Kupeltegi,-2.6905929841467326,42.82010900542054,Polygon,España,2026-03-04 13:06:55.752367
La Casa del Patrón,-2.8199855908046496,42.95667665581637,Polygon,España,2026-03-04 13:06:55.752367
Zuia Plaza Café,-2.8196716499999996,42.95676325,Polygon,España,2026-03-04 13:06:55.752367
Rioja,-2.6563790203742284,42.87832335211549,Polygon,España,2026-03-04 13:06:55.752367
Borda Berri,-2.8014319203834592,42.89012874043345,Polygon,España,2026-03-04 13:06:55.752367
,-2.6013025465326125,42.859533548997575,Polygon,España,2026-03-04 13:06:55.752367
Urbazter jatetxea,-2.610641899623103,42.93725899250855,Polygon,España,2026-03-04 13:06:55.752367
La Duna,-2.653689713483132,42.86480627940975,Polygon,España,2026-03-04 13:06:55.752367
Lusitano,-2.6606370689807957,42.869850906341696,Polygon,España,2026-03-04 13:06:55.752367
Bar Restaurante Lermanda,-2.745615428541141,42.84388536051633,Polygon,España,2026-03-04 13:06:55.752367
Asador Sidrería Mendiola,-2.6521026308952598,42.81552554935729,Polygon,España,2026-03-04 13:06:55.752367
Mariñela Elkartea,-2.5395893599277475,42.925633695750285,Polygon,España,2026-03-04 13:06:55.752367
Héctor Oribe,-2.604735038470744,42.55883608244647,Polygon,España,2026-03-04 13:06:55.752367
Restaurante La Huerta Vieja,-2.5872717960638303,42.55966134230287,Polygon,España,2026-03-04 13:06:55.752367
Araba,-2.7004949001618503,42.85376672889454,Polygon,España,2026-03-04 13:06:55.752367
Izarra Taberna Jatetxea,-2.8270091312563426,42.95071065472206,Polygon,España,2026-03-04 13:06:55.752367
Bar La Ventilla,-2.998558266606831,43.17100155154603,Polygon,España,2026-03-04 13:06:55.752367
Okondoko Batzokia,-3.026272123879743,43.15738693882443,Polygon,España,2026-03-04 13:06:55.752367
Casa Periko Etxea,-2.3590273690346617,42.826916411769666,Polygon,España,2026-03-04 13:06:55.752367
Área de servicio Olaona,-2.5188547924960245,42.87827422378653,Polygon,España,2026-03-04 13:06:55.752367
Restaurante Oleta,-3.00085083024892,43.0970689189612,Polygon,España,2026-03-04 13:06:55.752367
OkelurriBerganza,-2.9414941598643662,43.05301349179995,Polygon,España,2026-03-04 13:06:55.752367
Bideko Jatetxea,-2.956140936753042,43.02553112826736,Polygon,España,2026-03-04 13:06:55.752367
El Refor,-2.9991005596499307,43.0408754225418,Polygon,España,2026-03-04 13:06:55.752367
Abiaga,-2.992073939539729,43.05408762332303,Polygon,España,2026-03-04 13:06:55.752367
Arenalde Maitea jatetxea,-2.999083463764512,43.05758948922443,Polygon,España,2026-03-04 13:06:55.752367
El Crucero,-2.644170001248173,42.975212817706655,Polygon,España,2026-03-04 13:06:55.752367
,-2.6183682931501155,42.968022049584285,Polygon,España,2026-03-04 13:06:55.752367
Sociedad Gastronómica Zeledon Txiki,-2.3455345872665045,42.88509166513069,Polygon,España,2026-03-04 13:06:55.752367
Imaz sagardotegia,-2.346542858843411,42.8860877379065,Polygon,España,2026-03-04 13:06:55.752367
Sidrería Larritu,-2.9269986029204986,43.02636688269688,Polygon,España,2026-03-04 13:06:55.752367
El Ventorro,-2.319595420241473,42.86481084054818,Polygon,España,2026-03-04 13:06:55.752367
Marutegi,-2.3224235168646166,42.90339048347367,Polygon,España,2026-03-04 13:06:55.752367
Iturrieta sagardotegia,-2.5752192876891518,43.05227127317561,Polygon,España,2026-03-04 13:06:55.752367
Restaurante Añai,-2.5656807608011403,43.049902570135295,Polygon,España,2026-03-04 13:06:55.752367
Coto de caza El Castillo,-2.8554061123151393,42.65243041566557,Polygon,España,2026-03-04 13:06:55.752367
Kuartangoko sozietatea,-2.891863177267744,42.86969185801865,Polygon,España,2026-03-04 13:06:55.752367
Baias,-2.889164636874087,42.87078267577903,Polygon,España,2026-03-04 13:06:55.752367
Kuartango sagardotegia,-2.8872494271271707,42.87039515642183,Polygon,España,2026-03-04 13:06:55.752367
Restaurante Jundiz Jatetxea,-2.7406327752317687,42.8463214398275,Polygon,España,2026-03-04 13:06:55.752367
Domina jatetxea,-2.5882664277583305,42.96043724183303,Polygon,España,2026-03-04 13:06:55.752367
Marisquería,-2.6501686468060597,42.956318185494624,Polygon,España,2026-03-04 13:06:55.752367
Castillo El Collado,-2.585104318520658,42.5560203103092,Polygon,España,2026-03-04 13:06:55.752367
Izki,-2.4487446332913447,42.738529186700504,Polygon,España,2026-03-04 13:06:55.752367
Vírgala,-2.473772853656317,42.75167567028255,Polygon,España,2026-03-04 13:06:55.752367
Ikea,-2.6805956393091392,42.84299325399938,Polygon,España,2026-03-04 13:06:55.752367
Zabaltegi,-2.676762898817151,42.844343826727055,Polygon,España,2026-03-04 13:06:55.752367
Mesón Ali,-2.7015070194086763,42.85397133028973,Polygon,España,2026-03-04 13:06:55.752367
Sociedad Urugana,-2.726119065843207,42.88777962267705,Polygon,España,2026-03-04 13:06:55.752367
El Chigre,-2.699584206161118,42.85358328384569,Polygon,España,2026-03-04 13:06:55.752367
Pizzapol,-3.0683832290608786,42.842313062356986,Polygon,España,2026-03-04 13:06:55.752367
Restaurante el Currante,-2.660225206565262,42.86771101677557,Polygon,España,2026-03-04 13:06:55.752367
,-2.434964849999999,42.735929549999994,Polygon,España,2026-03-04 13:06:55.752367
Sidrería Poniente,-5.6840265,43.5374883,Point,España,2026-03-04 13:06:55.752367
El llavianu,-5.6840462,43.5368402,Point,España,2026-03-04 13:06:55.752367
Mesón El Puente Romano,-5.1325644,43.3504186,Point,España,2026-03-04 13:06:55.752367
Restaurante La Fabada,-5.088374,43.3471015,Point,España,2026-03-04 13:06:55.752367
Casa Manuela,-5.12954,43.3513542,Point,España,2026-03-04 13:06:55.752367
Restaurante El Abuelo,-5.1267152,43.3510757,Point,España,2026-03-04 13:06:55.752367
Casa Fabiola,-4.5807187,43.3278935,Point,España,2026-03-04 13:06:55.752367
Camping Deva,-5.5991245,43.5132175,Point,España,2026-03-04 13:06:55.752367
Sidreria El Cruce,-5.604466,43.5161619,Point,España,2026-03-04 13:06:55.752367
Puerta del Sol,-4.7534701,43.4182304,Point,España,2026-03-04 13:06:55.752367
La Tasca,-4.7560644,43.4217572,Point,España,2026-03-04 13:06:55.752367
Telepizza,-4.7559767,43.4217515,Point,España,2026-03-04 13:06:55.752367
Las Piratas del Sablon,-4.7514702,43.4218547,Point,España,2026-03-04 13:06:55.752367
La Galeria,-4.7567893,43.420763,Point,España,2026-03-04 13:06:55.752367
Chibiski,-4.7529427,43.418808,Point,España,2026-03-04 13:06:55.752367
La Cueva,-4.7521197,43.4197109,Point,España,2026-03-04 13:06:55.752367
El Salero,-4.7511306,43.4200809,Point,España,2026-03-04 13:06:55.752367
El Retiro,-4.7647108,43.4123164,Point,España,2026-03-04 13:06:55.752367
El Cuetu,-4.7616442,43.4119716,Point,España,2026-03-04 13:06:55.752367
Meson Las Cuevas,-4.9440688,43.3865245,Point,España,2026-03-04 13:06:55.752367
Contamos Contigo,-4.9413415,43.3861167,Point,España,2026-03-04 13:06:55.752367
Casa Moran,-4.9117701,43.3970378,Point,España,2026-03-04 13:06:55.752367
Picu L'Salgar,-4.9085157,43.3842315,Point,España,2026-03-04 13:06:55.752367
El Sucon,-4.8864311,43.3777339,Point,España,2026-03-04 13:06:55.752367
Sidrería El Mirador,-5.1857136,43.3902447,Point,España,2026-03-04 13:06:55.752367
La Espuela,-4.7357646,43.4114578,Point,España,2026-03-04 13:06:55.752367
Migal,-4.731464,43.4144234,Point,España,2026-03-04 13:06:55.752367
La Parrera,-4.8377531,43.4356926,Point,España,2026-03-04 13:06:55.752367
El Chiqui,-4.8098708,43.4277081,Point,España,2026-03-04 13:06:55.752367
Xagarda,-4.7830018,43.4241658,Point,España,2026-03-04 13:06:55.752367
Mesón El Rubino,-4.6377078,43.3967661,Point,España,2026-03-04 13:06:55.752367
Casa Poli,-4.6860826,43.3985671,Point,España,2026-03-04 13:06:55.752367
Europa,-4.735658,43.3996106,Point,España,2026-03-04 13:06:55.752367
La Veguca,-4.7339308,43.3975709,Point,España,2026-03-04 13:06:55.752367
Mesón La Roza,-4.7317779,43.3967425,Point,España,2026-03-04 13:06:55.752367
Macram,-4.7519283,43.417988,Point,España,2026-03-04 13:06:55.752367
La Arcea,-4.7218049,43.406507,Point,España,2026-03-04 13:06:55.752367
El Borizu,-4.8127421,43.4331959,Point,España,2026-03-04 13:06:55.752367
Restaurante El Arco,-4.8133261,43.4254935,Point,España,2026-03-04 13:06:55.752367
Villamar,-4.8093521,43.4296825,Point,España,2026-03-04 13:06:55.752367
Castru El Gaiteru,-4.8095771,43.4299196,Point,España,2026-03-04 13:06:55.752367
Sidrería El Congreso,-5.4326581,43.4810388,Point,España,2026-03-04 13:06:55.752367
,-4.8586752,43.4253614,Point,España,2026-03-04 13:06:55.752367
El Bote,-6.9441683,43.570674,Point,España,2026-03-04 13:06:55.752367
Sushitokyo,-5.8299307,43.3710057,Point,España,2026-03-04 13:06:55.752367
Sidreria El Corcho,-5.9026003,43.5398663,Point,España,2026-03-04 13:06:55.752367
La Taberna,-6.8411341,43.5632375,Point,España,2026-03-04 13:06:55.752367
Mesón Dany,-6.1585897,43.4117169,Point,España,2026-03-04 13:06:55.752367
Meson Pajulon,-6.4037181,43.3343476,Point,España,2026-03-04 13:06:55.752367
La Parrilla,-6.9043219,43.2114861,Point,España,2026-03-04 13:06:55.752367
Casa Pacita,-6.2567586,43.4090468,Point,España,2026-03-04 13:06:55.752367
El Manantial,-6.0139613,43.2546237,Point,España,2026-03-04 13:06:55.752367
El Refugio,-6.4162467,43.3334893,Point,España,2026-03-04 13:06:55.752367
Mesón Cervantes,-6.416458,43.3337014,Point,España,2026-03-04 13:06:55.752367
El Barómetro,-6.5326711,43.5450811,Point,España,2026-03-04 13:06:55.752367
El Rexidor,-5.8962112,43.5843788,Point,España,2026-03-04 13:06:55.752367
Fuentes de Invierno,-5.3925745,43.0626331,Point,España,2026-03-04 13:06:55.752367
La Braña,-5.3882286,43.0655217,Point,España,2026-03-04 13:06:55.752367
,-5.6496765,43.5304573,Point,España,2026-03-04 13:06:55.752367
Altu Caxiga,-4.8811036,43.4137429,Point,España,2026-03-04 13:06:55.752367
Club Marítimo,-4.8092448,43.4313498,Point,España,2026-03-04 13:06:55.752367
Vinoteca-Restaurante La Tertulia,-4.8085169,43.4310001,Point,España,2026-03-04 13:06:55.752367
Sidrería Crisol,-5.6814872,43.5403989,Point,España,2026-03-04 13:06:55.752367
La Carreña,-5.6818331,43.540442,Point,España,2026-03-04 13:06:55.752367
La rural,-5.6812011,43.5402315,Point,España,2026-03-04 13:06:55.752367
Parrilla El Mansolea,-4.5413449,43.3888135,Point,España,2026-03-04 13:06:55.752367
Benita,-5.6683734,43.5419196,Point,España,2026-03-04 13:06:55.752367
El Redondín Casa Rafa,-4.8194628,43.2349172,Point,España,2026-03-04 13:06:55.752367
Casa Victor,-5.6662088,43.5415003,Point,España,2026-03-04 13:06:55.752367
Pulperia Galicia,-5.6667121,43.5419773,Point,España,2026-03-04 13:06:55.752367
Sidreria Canteli,-5.6666388,43.5418666,Point,España,2026-03-04 13:06:55.752367
Sidreria El Centenario,-5.6628848,43.5451778,Point,España,2026-03-04 13:06:55.752367
Sidería San Mamés,-5.5902636,43.2765819,Point,España,2026-03-04 13:06:55.752367
Sidrería El Trus,-5.5896688,43.2761359,Point,España,2026-03-04 13:06:55.752367
Tierra Astur,-5.6749788,43.5414993,Point,España,2026-03-04 13:06:55.752367
Sol´Horrín,-6.007612,43.2037031,Point,España,2026-03-04 13:06:55.752367
Lo Compuerto,-4.7519252,43.4198254,Point,España,2026-03-04 13:06:55.752367
Bar Uría,-4.7543816,43.4197997,Point,España,2026-03-04 13:06:55.752367
Bar Colón,-4.7542366,43.4198974,Point,España,2026-03-04 13:06:55.752367
Alonso,-4.754855,43.4102588,Point,España,2026-03-04 13:06:55.752367
Platero,-5.665101,43.5425212,Point,España,2026-03-04 13:06:55.752367
Sidreria La Galana,-5.6625166,43.5451723,Point,España,2026-03-04 13:06:55.752367
Bar Inn,-5.6631603,43.5451825,Point,España,2026-03-04 13:06:55.752367
El Taller,-4.7557879,43.420195,Point,España,2026-03-04 13:06:55.752367
Sidrería El Cuera,-4.755272,43.4197709,Point,España,2026-03-04 13:06:55.752367
Meson El Galeon,-4.7536437,43.4206973,Point,España,2026-03-04 13:06:55.752367
La Casona,-4.7537201,43.4206706,Point,España,2026-03-04 13:06:55.752367
El Bodegon,-4.7541039,43.4205613,Point,España,2026-03-04 13:06:55.752367
La Fontana,-4.7542934,43.4203722,Point,España,2026-03-04 13:06:55.752367
Siete Puertas,-4.7541905,43.4202581,Point,España,2026-03-04 13:06:55.752367
